{
  "version": 0.6,
  "generator": "Overpass API 0.7.54.12 054bb0bb",
  "osm3s": {
    "timestamp_osm_base": "2017-12-12T13:22:02Z",
    "timestamp_areas_base": "2017-12-12T11:54:02Z",
    "copyright": "The data included in this document is from www.openstreetmap.org. The data is made available under ODbL."
  },
  "elements": [

{
  "type": "node",
  "id": 21876751,
  "lat": 52.9818522,
  "lon": 8.8492718,
  "tags": {
    "addr:city": "Weyhe",
    "addr:postcode": "28844",
    "amenity": "restaurant",
    "name": "GARBS am Markt",
    "opening_hours": "09:30+",
    "phone": "04203 78 85 40",
    "website": "http://www.garbs-am-markt.de",
    "wheelchair": "limited"
  }
},
{
  "type": "node",
  "id": 23656879,
  "lat": 52.5310416,
  "lon": 8.2030966,
  "tags": {
    "addr:city": "Damme",
    "addr:housenumber": "6",
    "addr:postcode": "49401",
    "addr:street": "Wellenweg",
    "contact:email": "info@waldhotel-zum-bergsee.de",
    "contact:fax": "05491 - 95 66-33",
    "name": "Hotel-Restaurant Waldhotel zum Bergsee",
    "operator": "Franz-Georg Pille",
    "phone": "05491 - 95 66-0",
    "stars": "3",
    "tourism": "hotel",
    "website": "http://www.waldhotel-zum-bergsee.de/",
    "wheelchair": "no"
  }
},
{
  "type": "node",
  "id": 23661067,
  "lat": 51.7756219,
  "lon": 9.5395609,
  "tags": {
    "addr:city": "Silberborn",
    "addr:postcode": "37603",
    "addr:street": "Schiesshäuser Straße",
    "name": "Jugendherberge Silberborn",
    "phone": "(0)5536-568",
    "tourism": "hostel",
    "wheelchair": "limited"
  }
},
{
  "type": "node",
  "id": 28119109,
  "lat": 53.5849903,
  "lon": 7.7711494,
  "tags": {
    "addr:city": "Wittmund",
    "addr:country": "DE",
    "addr:housenumber": "58",
    "addr:postcode": "26409",
    "addr:street": "Esenser Straße",
    "name": "Combi Verbrauchermarkt Wittmund",
    "opening_hours": "Mo-Sa 08:00-21:00",
    "operator": "Combi Verbrauchermarkt Einkaufsstätte GmbH & Co.KG",
    "phone": "04462 94810",
    "shop": "supermarket",
    "website": "http://www.combi.de/"
  }
},
{
  "type": "node",
  "id": 30503813,
  "lat": 51.5823856,
  "lon": 10.3525981,
  "tags": {
    "fax": "05521 - 73656",
    "name": "Waldjugendheim Rotenberg",
    "operator": "Waldpädagogikzentrum Göttingen - Haus Rotenberg",
    "phone": "05521 - 3161",
    "tourism": "hostel",
    "website": "http://www.landesforsten.de/index.php?id=1594"
  }
},
{
  "type": "node",
  "id": 32141175,
  "lat": 53.5878402,
  "lon": 6.6629866,
  "tags": {
    "addr:city": "Borkum",
    "addr:country": "DE",
    "addr:housenumber": "4",
    "addr:postcode": "26757",
    "addr:street": "Georg-Schütte-Platz",
    "amenity": "pharmacy",
    "contact:phone": "+49 4922 3500",
    "contact:website": "http://www.insel-apotheke-borkum.de/",
    "dispensing": "yes",
    "name": "Insel-Apotheke",
    "opening_hours": "Mo-Fr 08:30-13:00,15:00-18:00;Sa 08:30-13:00;Apr-Oct: Su 11:00-12:00",
    "operator": "Friedhelm Brendel",
    "phone": "04922 3500",
    "website": "http://www.insel-apotheke-borkum.de",
    "wheelchair": "yes"
  }
},
{
  "type": "node",
  "id": 54216126,
  "lat": 52.4393414,
  "lon": 9.7417020,
  "tags": {
    "addr:housenumber": "5",
    "addr:street": "Ostpassage",
    "amenity": "police",
    "name": "Polizeikommissariat Langenhagen",
    "phone": "(0511) 109-0"
  }
},
{
  "type": "node",
  "id": 60010811,
  "lat": 53.3719794,
  "lon": 9.2139663,
  "tags": {
    "addr:housename": "Selsinger Hof",
    "addr:housenumber": "1",
    "addr:postcode": "27446",
    "addr:street": "Bahnhofstraße",
    "amenity": "restaurant",
    "email": "selsingerhof@selsingerhof.de",
    "name": "Selsinger Hof",
    "operator": "Katrin Gehrmann",
    "phone": "0 42 84-93 93-0",
    "source": "Homepage",
    "website": "http://www.selsingerhof.de"
  }
},
{
  "type": "node",
  "id": 65036692,
  "lat": 53.1336716,
  "lon": 8.2046910,
  "tags": {
    "addr:city": "Oldenburg",
    "addr:country": "DE",
    "addr:housenumber": "27",
    "addr:postcode": "26122",
    "addr:street": "Gartenstraße",
    "amenity": "fuel",
    "fuel:diesel": "yes",
    "fuel:lpg": "yes",
    "fuel:octane_91": "yes",
    "fuel:octane_95": "yes",
    "mapping_status": "incomplete",
    "name": "OIL! Tankstelle",
    "operator": "H. Stamereilers",
    "phone": "0441/506400",
    "wheelchair": "yes"
  }
},
{
  "type": "node",
  "id": 79473539,
  "lat": 52.3593081,
  "lon": 9.7516356,
  "tags": {
    "amenity": "telephone",
    "payment:coins": "yes",
    "phone": "0511-886812"
  }
},
{
  "type": "node",
  "id": 84737500,
  "lat": 53.1464752,
  "lon": 8.1872522,
  "tags": {
    "addr:city": "Oldenburg",
    "addr:country": "DE",
    "addr:housenumber": "64",
    "addr:postcode": "26129",
    "addr:street": "Ammerländer Heerstraße",
    "amenity": "fuel",
    "fuel:HGV_diesel": "yes",
    "fuel:diesel": "yes",
    "fuel:lpg": "yes",
    "fuel:octane_91": "yes",
    "fuel:octane_95": "yes",
    "name": "OIL!",
    "operator": "Jan Harms",
    "phone": "0441 72969",
    "tenant": "Jan Harms",
    "website": "http://www.tankstelle-harms.de",
    "wheelchair": "yes"
  }
},
{
  "type": "node",
  "id": 84794580,
  "lat": 52.2519110,
  "lon": 10.5103398,
  "tags": {
    "amenity": "fast_food",
    "cuisine": "pizza",
    "name": "Pizzeria Jakupi",
    "opening_hours": "Mo-Fr 11:00-22:00",
    "phone": "05312806463",
    "takeaway": "yes",
    "wheelchair": "no"
  }
},
{
  "type": "node",
  "id": 87726992,
  "lat": 52.3655964,
  "lon": 9.7461057,
  "tags": {
    "amenity": "telephone",
    "phone": "0511 100804071"
  }
},
{
  "type": "node",
  "id": 93092228,
  "lat": 52.2337729,
  "lon": 11.0225638,
  "tags": {
    "addr:city": "Helmstedt",
    "addr:country": "DE",
    "addr:postcode": "38350",
    "addr:street": "A2 Richtung Berlin",
    "amenity": "fuel",
    "atmotorway": "yes",
    "fax": "05351/42344",
    "fuel:HGV_diesel": "yes",
    "fuel:octane_95": "yes",
    "name": "BAT Helmstedt Süd",
    "operator": "Rebekka Drinkhut-Ahrens",
    "phone": "05351/2071",
    "wheelchair": "yes"
  }
},
{
  "type": "node",
  "id": 129857610,
  "lat": 52.9094066,
  "lon": 8.4393531,
  "tags": {
    "addr:city": "Dötlingen",
    "addr:country": "DE",
    "addr:housenumber": "34",
    "addr:postcode": "27801",
    "addr:street": "Wildeshauser Straße",
    "name": "Gut Altona Hotel Restaurant",
    "operator": "Heiner Ahrmann",
    "phone": "044319500",
    "tourism": "hotel",
    "website": "www.gut-altona.de",
    "wheelchair": "limited"
  }
},
{
  "type": "node",
  "id": 139143461,
  "lat": 53.5999781,
  "lon": 7.7053820,
  "tags": {
    "addr:city": "Wittmund",
    "addr:country": "DE",
    "addr:housenumber": "9",
    "addr:postcode": "26409",
    "addr:street": "Hauptstraße",
    "addr:suburb": "Burhafe",
    "amenity": "restaurant",
    "cuisine": "regional",
    "name": "Gaststätte de Buhr - Saalbetrieb",
    "operator": "Hinrich de Buhr",
    "phone": "04973 326",
    "wheelchair": "limited"
  }
},
{
  "type": "node",
  "id": 166472884,
  "lat": 53.3690121,
  "lon": 7.1843534,
  "tags": {
    "addr:city": "Emden",
    "addr:country": "DE",
    "addr:housename": "Hochschule Emden",
    "addr:housenumber": "4",
    "addr:postcode": "26723",
    "addr:street": "Constantiaplatz",
    "alt_name": "Fachhochschule Emden",
    "amenity": "university",
    "image": "http://upload.wikimedia.org/wikipedia/commons/8/88/Flug_Emden_2010_132.JPG",
    "name": "Hochschule Emden/Leer (Campus Emden)",
    "phone": "049218070",
    "website": "http://www.hs-emden-leer.de",
    "wheelchair": "yes",
    "wikidata": "Q1622096",
    "wikipedia": "de:Hochschule Emden/Leer"
  }
},
{
  "type": "node",
  "id": 175673452,
  "lat": 53.0338771,
  "lon": 8.9541837,
  "tags": {
    "amenity": "bank",
    "name": "Sparkasse",
    "phone": "04202916610",
    "wheelchair": "yes"
  }
},
{
  "type": "node",
  "id": 175674228,
  "lat": 53.0125539,
  "lon": 9.0310279,
  "tags": {
    "amenity": "pharmacy",
    "dispensing": "yes",
    "name": "Alte Apotheke",
    "phone": "042028999",
    "wheelchair": "no"
  }
},
{
  "type": "node",
  "id": 178470512,
  "lat": 53.2499957,
  "lon": 10.4090861,
  "tags": {
    "addr:city": "Lüneburg",
    "addr:country": "DE",
    "addr:housenumber": "31",
    "addr:postcode": "21335",
    "addr:street": "Große Bäckerstraße",
    "name": "Karstadt",
    "opening_hours": "Mo-Fr 09:00-19:00; Sa 09:00-18:00",
    "phone": "04131 3040",
    "shop": "department_store",
    "website": "http://www.karstadt.de/",
    "wheelchair": "yes"
  }
},
{
  "type": "node",
  "id": 192449037,
  "lat": 53.1659826,
  "lon": 7.3556091,
  "tags": {
    "addr:city": "Weener",
    "addr:housenumber": "16",
    "addr:postcode": "26826",
    "addr:street": "Norderstraße",
    "amenity": "pharmacy",
    "dispensing": "yes",
    "name": "Löwenapotheke",
    "phone": "04951955080",
    "website": "http://www.loewenapotheke-weener.de/",
    "wheelchair": "yes",
    "wheelchair:description": "Der Eingang ist ebenerdig. Allerdings ist es schwer sich bemerkbar zu machen. Da als Rollstuhlfahrer die Klingel schlecht erreichbar ist."
  }
},
{
  "type": "node",
  "id": 206245013,
  "lat": 53.1333438,
  "lon": 8.1938285,
  "tags": {
    "addr:city": "Oldenburg",
    "addr:country": "DE",
    "addr:housenumber": "74",
    "addr:postcode": "26122",
    "addr:street": "Hauptstraße",
    "amenity": "bank",
    "atm": "yes",
    "emergency": "defibrillator",
    "name": "Raiffeisenbank Oldenburg eG",
    "opening_hours": "Mo-We 08:00-12:30,14:00-17:00; Th 08:00-12:30,14:00-18:00; Fr 08:00-13:00",
    "operator": "Raiffeisenbank Oldenburg eG",
    "phone": "0441/9502-0",
    "source": "Eigenpflege durch die Bank",
    "website": "http://www.raiba-oldenburg.de",
    "wheelchair": "yes",
    "wikidata": "Q2127595",
    "wikipedia": "de:Raiffeisenbank Oldenburg"
  }
},
{
  "type": "node",
  "id": 243711140,
  "lat": 52.3659854,
  "lon": 9.9085794,
  "tags": {
    "addr:city": "Lehrte",
    "addr:country": "DE",
    "addr:housenumber": "15 A",
    "addr:postcode": "31275",
    "addr:street": "Zum Großen Freien",
    "amenity": "pharmacy",
    "name": "Löwen-Apotheke",
    "opening_hours": "Mo-Fr 08:00-13:00,15:00-19:00; Sa 09:00-13:00",
    "phone": "05132 - 7270",
    "wheelchair": "yes"
  }
},
{
  "type": "node",
  "id": 243711156,
  "lat": 52.3686604,
  "lon": 9.9082604,
  "tags": {
    "addr:city": "Lehrte",
    "addr:country": "DE",
    "addr:housenumber": "40",
    "addr:postcode": "31275",
    "addr:street": "Zum Großen Freien",
    "name": "Sigbert Ewald, Kreative Floristik",
    "phone": "05132 - 50 69 14",
    "shop": "florist",
    "wheelchair": "limited"
  }
},
{
  "type": "node",
  "id": 243711314,
  "lat": 52.3647969,
  "lon": 9.9098902,
  "tags": {
    "addr:city": "Lehrte",
    "addr:country": "DE",
    "addr:housenumber": "10",
    "addr:postcode": "31275",
    "addr:street": "Zum Großen Freien",
    "created_by": "JOSM",
    "name": "Klöpper Bäckerei & Konditorei",
    "phone": "05132 - 72 15",
    "shop": "convenience",
    "wheelchair": "no"
  }
},
{
  "type": "node",
  "id": 243711318,
  "lat": 52.3613527,
  "lon": 9.9115475,
  "tags": {
    "FIXME": "Ist das gleich dem Kaiserhof? Der wirbt im Internet mit Behindertenfreundlichkeit, während hier Rollstuhlzugang=nein eingetragen ist. Was stimmt?",
    "addr:city": "Lehrte",
    "addr:country": "DE",
    "addr:housenumber": "29",
    "addr:postcode": "31275",
    "addr:street": "Hannoversche Straße",
    "name": "Hotel Kaiserhof",
    "old_name": "Dorfkrug",
    "phone": "05132 - 60 03",
    "tourism": "hotel",
    "wheelchair": "no",
    "wheelchair:toilet": "no"
  }
},
{
  "type": "node",
  "id": 243711319,
  "lat": 52.3609069,
  "lon": 9.9157286,
  "tags": {
    "FIXME": "wheelchair?",
    "addr:city": "Lehrte",
    "addr:country": "DE",
    "addr:housenumber": "18",
    "addr:postcode": "31275",
    "addr:street": "Raiffeisenstraße",
    "addr:suburb": "Ahlten",
    "name": "Trend Hotel Lehrte",
    "phone": "05132 - 86 910",
    "tourism": "hotel"
  }
},
{
  "type": "node",
  "id": 243711324,
  "lat": 52.3639495,
  "lon": 9.9096873,
  "tags": {
    "addr:city": "Lehrte",
    "addr:country": "DE",
    "addr:housenumber": "3",
    "addr:postcode": "31275",
    "addr:street": "Zum Großen Freien",
    "name": "Landhotel Behre",
    "phone": "05132 - 86780",
    "tourism": "hotel",
    "wheelchair:toilet": "no"
  }
},
{
  "type": "node",
  "id": 245038176,
  "lat": 53.1683080,
  "lon": 8.2150622,
  "tags": {
    "addr:city": "Oldenburg",
    "addr:country": "DE",
    "addr:housenumber": "100",
    "addr:postcode": "26127",
    "addr:street": "Scheideweg",
    "name": "famila Nordwest",
    "phone": "0441 935680",
    "shop": "supermarket",
    "wheelchair": "limited"
  }
},
{
  "type": "node",
  "id": 245786836,
  "lat": 52.5476008,
  "lon": 9.7438777,
  "tags": {
    "addr:city": "Wedemark",
    "addr:country": "DE",
    "addr:housenumber": "88",
    "addr:postcode": "30900",
    "addr:street": "Wedemarkstraße",
    "amenity": "cafe",
    "name": "Vatter´s Brotzeit",
    "opening_hours": "Mo-Fr 06:00-18:30; Sa,Su 06:00-17:00",
    "phone": "05130-5840537",
    "website": "http://www.baeckerei-vatter.de/standorte/fachgeschaefte/brotzeit",
    "wheelchair": "limited"
  }
},
{
  "type": "node",
  "id": 246803571,
  "lat": 51.9293122,
  "lon": 9.6350834,
  "tags": {
    "addr:city": "Eschershausen",
    "addr:country": "DE",
    "addr:housenumber": "10",
    "addr:postcode": "37632",
    "addr:street": "Raabestraße",
    "amenity": "townhall",
    "name": "Rathaus Eschershausen",
    "phone": "05532-9005ext.0",
    "wheelchair": "no"
  }
},
{
  "type": "node",
  "id": 247541455,
  "lat": 53.1483249,
  "lon": 8.1820590,
  "tags": {
    "addr:city": "Oldenburg",
    "addr:housenumber": "99a",
    "addr:postcode": "26129",
    "addr:street": "Uhlhornsweg",
    "name": "Junge Öffentliche",
    "phone": "044136144820",
    "website": "www.junge-oeffentliche.de"
  }
},
{
  "type": "node",
  "id": 248599565,
  "lat": 52.2361578,
  "lon": 8.1675916,
  "tags": {
    "addr:housenumber": "8",
    "addr:postcode": "49143",
    "addr:street": "Osnabrücker Straße",
    "name": "NP",
    "opening_hours": "Mo-Sa 7:00-21:00",
    "phone": "05402-4874",
    "shop": "supermarket",
    "wheelchair": "yes"
  }
},
{
  "type": "node",
  "id": 248884368,
  "lat": 53.2142527,
  "lon": 8.0143514,
  "tags": {
    "addr:city": "Bad Zwischenahn",
    "addr:country": "DE",
    "addr:housenumber": "1",
    "addr:postcode": "26160",
    "addr:street": "Dreiberger Straße",
    "addr:suburb": "Helle",
    "amenity": "restaurant",
    "name": "Seerose - Hotel & Café",
    "phone": "04403 8787",
    "tourism": "hotel",
    "website": "http://www.seerose.de.vu/",
    "wheelchair": "yes"
  }
},
{
  "type": "node",
  "id": 250142574,
  "lat": 52.6109040,
  "lon": 10.0222170,
  "tags": {
    "addr:city": "Celle",
    "addr:country": "DE",
    "addr:housenumber": "2",
    "addr:postcode": "29225",
    "addr:street": "Zum Alten Kanal",
    "amenity": "restaurant",
    "beer_garden": "yes",
    "cuisine": "german",
    "name": "Zum alten Kanal",
    "outdoor_seating": "yes",
    "phone": "05141/42312",
    "smoking": "outside",
    "takeaway": "no",
    "website": "www.alterkanal.de",
    "wheelchair": "limited"
  }
},
{
  "type": "node",
  "id": 251050934,
  "lat": 52.2640656,
  "lon": 10.5188619,
  "tags": {
    "addr:city": "Braunschweig",
    "addr:country": "DE",
    "addr:postcode": "38100",
    "name": "SFU (Sachen für Unterwegs)",
    "note": "SFU Bekleidung",
    "phone": "0531-13666",
    "shop": "outdoor",
    "toilets:wheelchair": "no",
    "website": "http://www.sfu.de/",
    "wheelchair": "limited"
  }
},
{
  "type": "node",
  "id": 251281130,
  "lat": 52.6437417,
  "lon": 9.2133541,
  "tags": {
    "addr:city": "Nienburg/Weser",
    "addr:housenumber": "19",
    "addr:postcode": "31582",
    "addr:street": "Wilhelmstraße",
    "amenity": "pharmacy",
    "dispensing": "yes",
    "name": "Bahnhof Apotheke",
    "opening_hours": "Mo-Tu 08:00-18:30; We,Fr 08:00-18:00; Th 08:00-19:00; Sa 08:00-13:00",
    "phone": "495021 2232",
    "wheelchair": "yes"
  }
},
{
  "type": "node",
  "id": 252367716,
  "lat": 52.6208670,
  "lon": 10.0626059,
  "tags": {
    "name": "Celle",
    "operator": "Deutsche Bahn",
    "phone": "05141933975",
    "public_transport": "station",
    "railway": "station",
    "railway:ref": "HC",
    "railway:station_category": "3",
    "toilets:wheelchair": "no",
    "uic_ref": "8000064",
    "wheelchair": "yes",
    "wheelchair:description": "Mitte 2010 wurden Fahrstühle eingebaut, jetzt kann mann alle Gleisen gut erreichen."
  }
},
{
  "type": "node",
  "id": 252903101,
  "lat": 52.3986402,
  "lon": 9.6407684,
  "tags": {
    "addr:city": "Seelze",
    "addr:country": "DE",
    "addr:housenumber": "2",
    "addr:postcode": "30926",
    "addr:street": "Nordstraße",
    "addr:suburb": "Letter",
    "amenity": "pharmacy",
    "dispensing": "yes",
    "name": "Rathausapotheke",
    "phone": "0511 404255",
    "surveillance": "indoor",
    "wheelchair": "yes"
  }
},
{
  "type": "node",
  "id": 253247561,
  "lat": 52.3934578,
  "lon": 9.7462879,
  "tags": {
    "addr:city": "Hannover",
    "addr:housenumber": "44",
    "addr:postcode": "30163",
    "addr:street": "Ferdinand-Wallbrecht-Straße",
    "amenity": "cafe",
    "cuisine": "german",
    "name": "Café Tabac",
    "opening_hours": "Mo-Su,PH 10:00-18:00+",
    "phone": "0511 9618215",
    "website": "http://www.cafe-tabac.de/",
    "wheelchair": "no"
  }
},
{
  "type": "node",
  "id": 253269264,
  "lat": 52.3943626,
  "lon": 9.7379212,
  "tags": {
    "addr:city": "Hannover",
    "addr:housenumber": "30",
    "addr:street": "Dragonerstraße",
    "amenity": "restaurant",
    "name": "Basil",
    "opening_hours": "Mo-Sa 18:00-22:00",
    "outdoor_seating": "yes",
    "phone": "++49 511 622636",
    "website": "http://www.basil.de",
    "wheelchair": "limited"
  }
},
{
  "type": "node",
  "id": 255049500,
  "lat": 52.9817909,
  "lon": 8.8503066,
  "tags": {
    "amenity": "restaurant",
    "cuisine": "italian",
    "fax": "04203 707972",
    "name": "Vivaldi",
    "opening_hours": "Tu-Fr 12:00-15:00, 17:00-24:00; Sa-Su 11:00-24:00",
    "phone": "04203 707970",
    "website": "www.ristorante-vivaldi.de",
    "wheelchair": "limited"
  }
},
{
  "type": "node",
  "id": 259599378,
  "lat": 52.3635681,
  "lon": 9.7477047,
  "tags": {
    "amenity": "telephone",
    "created_by": "Potlatch 0.8b",
    "phone": "0511 100887235"
  }
},
{
  "type": "node",
  "id": 259982000,
  "lat": 52.3243381,
  "lon": 9.8099564,
  "tags": {
    "amenity": "telephone",
    "phone": "0511 8791903"
  }
},
{
  "type": "node",
  "id": 259984361,
  "lat": 52.3240722,
  "lon": 9.8076656,
  "tags": {
    "amenity": "telephone",
    "phone": "0511 108790158"
  }
},
{
  "type": "node",
  "id": 260061605,
  "lat": 52.3260282,
  "lon": 9.8045002,
  "tags": {
    "amenity": "telephone",
    "created_by": "Potlatch 0.8b",
    "phone": "0511 108791992"
  }
},
{
  "type": "node",
  "id": 260073805,
  "lat": 52.3259757,
  "lon": 9.8005434,
  "tags": {
    "amenity": "telephone",
    "created_by": "Potlatch 0.8b",
    "phone": "0511 108699175"
  }
},
{
  "type": "node",
  "id": 260139034,
  "lat": 52.3235300,
  "lon": 9.8068941,
  "tags": {
    "amenity": "telephone",
    "created_by": "Merkaartor 0.10",
    "phone": "0511 10869823"
  }
},
{
  "type": "node",
  "id": 260139049,
  "lat": 52.3239436,
  "lon": 9.8067491,
  "tags": {
    "amenity": "fast_food",
    "cuisine": "fish",
    "name": "Nordsee",
    "phone": "0175 2995074"
  }
},
{
  "type": "node",
  "id": 260230320,
  "lat": 52.5054713,
  "lon": 9.4604689,
  "tags": {
    "name": "Stadtschänke Helfers",
    "phone": "05032/3433",
    "tourism": "hotel"
  }
},
{
  "type": "node",
  "id": 260265940,
  "lat": 52.3655095,
  "lon": 9.7468173,
  "tags": {
    "amenity": "telephone",
    "phone": "0511 102834342"
  }
},
{
  "type": "node",
  "id": 260472134,
  "lat": 52.2297221,
  "lon": 11.0071608,
  "tags": {
    "amenity": "library",
    "email": "buecherei@stadt-helmstedt.de",
    "fax": "(05351) 54 36-46",
    "name": "Stadtbücherei",
    "opening_hours": "Mo,Fr 10:00-12:30; Tu 10:00-12:30,14:00-19:00; Th 10:00-12:30,14:00-17:00",
    "phone": "(05351) 54 36-45",
    "ref:isil": "DE-1172",
    "website": "http://www.stadt-helmstedt.de/bildung/buecherei.html"
  }
},
{
  "type": "node",
  "id": 262094366,
  "lat": 52.3721053,
  "lon": 10.1256835,
  "tags": {
    "addr:city": "Lehrte",
    "addr:country": "DE",
    "addr:housenumber": "14",
    "addr:postcode": "31275",
    "addr:street": "Kurfürstenstraße",
    "amenity": "fuel",
    "brand": "Star",
    "fuel:lpg": "yes",
    "name": "Star",
    "phone": "05175-7233",
    "website": "http://www.star-tankstellen.de",
    "wheelchair": "limited"
  }
},
{
  "type": "node",
  "id": 262322782,
  "lat": 51.7670937,
  "lon": 9.6448766,
  "tags": {
    "amenity": "school",
    "name": "Schullandheim Wilhelm Block",
    "phone": "05564-702",
    "wheelchair": "unknown"
  }
},
{
  "type": "node",
  "id": 262795836,
  "lat": 52.3787634,
  "lon": 9.9669213,
  "tags": {
    "amenity": "telephone",
    "phone": "05132 00584003"
  }
},
{
  "type": "node",
  "id": 262825175,
  "lat": 53.1190296,
  "lon": 8.2579397,
  "tags": {
    "addr:city": "Oldenburg",
    "addr:country": "DE",
    "addr:housenumber": "295",
    "addr:postcode": "26135",
    "addr:street": "Bremer Heerstraße",
    "amenity": "fuel",
    "name": "Avia-Tankstelle Bremer Heerstraße",
    "operator": "Avia",
    "phone": "0441 20792",
    "wheelchair": "yes"
  }
},
{
  "type": "node",
  "id": 263695043,
  "lat": 52.1153948,
  "lon": 9.9817065,
  "tags": {
    "addr:city": "Hildesheim",
    "addr:housenumber": "14",
    "addr:postcode": "31141",
    "addr:street": "Domänenstraße",
    "amenity": "cafe",
    "name": "Hofcafé",
    "opening_hours": "Tu-Su 09:00-18:00",
    "outdoor_seating": "yes",
    "phone": "05121 261601",
    "website": "https://www.facebook.com/Hofcaf%C3%A9-Dom%C3%A4ne-Marienburg-146687152017554/",
    "wheelchair": "no"
  }
},
{
  "type": "node",
  "id": 264273216,
  "lat": 53.5285162,
  "lon": 8.0876223,
  "tags": {
    "name": "Bismarkstraße/Schaarreihe",
    "operator": "GEW Wilhelmshaven GmbH",
    "phone": "04421 404777",
    "power": "sub_station",
    "ref": "5 E"
  }
},
{
  "type": "node",
  "id": 264273234,
  "lat": 53.5193360,
  "lon": 8.0927424,
  "tags": {
    "emergency": "phone",
    "name": "SOS-Notruftelefon",
    "phone": "04421 26913"
  }
},
{
  "type": "node",
  "id": 264273235,
  "lat": 53.5193701,
  "lon": 8.0926203,
  "tags": {
    "name": "CVJM/Marktstraße",
    "operator": "GEW Wilhelmshaven GmbH",
    "phone": "04421 404777",
    "power": "sub_station",
    "ref": "188 E"
  }
},
{
  "type": "node",
  "id": 264277887,
  "lat": 53.5201657,
  "lon": 8.1025672,
  "tags": {
    "amenity": "telephone",
    "operator": "Deutsche Telekom AG",
    "payment:coins": "yes",
    "payment:telephone_cards": "yes",
    "phone": "04421 23998"
  }
},
{
  "type": "node",
  "id": 264455445,
  "lat": 51.8821585,
  "lon": 9.6332128,
  "tags": {
    "addr:city": "Stadtoldendorf",
    "addr:housenumber": "42",
    "addr:postcode": "37627",
    "addr:street": "Lenner Straße",
    "name": "Rewe",
    "phone": "05532-972622",
    "shop": "supermarket",
    "wheelchair": "limited"
  }
},
{
  "type": "node",
  "id": 264486906,
  "lat": 53.5284595,
  "lon": 8.0987329,
  "tags": {
    "amenity": "restaurant",
    "created_by": "Merkaartor 0.10",
    "cuisine": "greek",
    "name": "Tortar",
    "phone": "04421 773070",
    "toilets:wheelchair": "no",
    "wheelchair": "limited"
  }
},
{
  "type": "node",
  "id": 264488278,
  "lat": 53.5246536,
  "lon": 8.1083324,
  "tags": {
    "addr:city": "Wilhelmshaven",
    "addr:country": "DE",
    "addr:housenumber": "29a",
    "addr:postcode": "26382",
    "addr:street": "Mitscherlichstraße",
    "name": "Bäckerei Kempe",
    "phone": "04421 23727",
    "shop": "bakery",
    "website": "http://www.kempe-baeckerei.de/index.php?id=34",
    "wheelchair": "yes"
  }
},
{
  "type": "node",
  "id": 264488653,
  "lat": 53.5286425,
  "lon": 8.1153364,
  "tags": {
    "addr:city": "Wilhelmshaven",
    "addr:country": "DE",
    "addr:housenumber": "5",
    "addr:postcode": "26384",
    "addr:street": "Kopperhörner Straße",
    "name": "Bike&Sport",
    "phone": "04421 34069",
    "shop": "bicycle",
    "wheelchair": "yes"
  }
},
{
  "type": "node",
  "id": 264877674,
  "lat": 52.4392220,
  "lon": 9.5886874,
  "tags": {
    "addr:city": "Garbsen",
    "addr:housenumber": "69",
    "addr:postcode": "30826",
    "addr:street": "Bremer Straße",
    "amenity": "fuel",
    "fuel:cng": "yes",
    "fuel:lpg": "yes",
    "name": "Tamoil",
    "opening_hours": "24/7",
    "phone": "05131 456517"
  }
},
{
  "type": "node",
  "id": 265946820,
  "lat": 52.4415751,
  "lon": 10.4358738,
  "tags": {
    "amenity": "pharmacy",
    "dispensing": "yes",
    "name": "Apotheke Leiferde",
    "phone": "05373 18 18",
    "website": "http://www.apothekeleiferde.de/index.html",
    "wheelchair": "limited"
  }
},
{
  "type": "node",
  "id": 266021857,
  "lat": 52.4409230,
  "lon": 10.8015600,
  "tags": {
    "addr:city": "Wolfsburg",
    "addr:country": "DE",
    "addr:housenumber": "21",
    "addr:postcode": "38448",
    "addr:street": "Schloßstraße",
    "addr:suburb": "Alt Wolfsburg",
    "amenity": "restaurant",
    "name": "Gasthaus Alter Wolf",
    "phone": "00490536186560"
  }
},
{
  "type": "node",
  "id": 266516015,
  "lat": 53.1126877,
  "lon": 8.1910115,
  "tags": {
    "addr:city": "Oldenburg",
    "addr:country": "DE",
    "addr:housenumber": "255",
    "addr:postcode": "26131",
    "addr:street": "Hundsmühler Straße",
    "addr:suburb": "Eversten",
    "amenity": "restaurant",
    "email": "Kontakt@HotelWoebken.de",
    "fax": "0441 96677-55",
    "name": "Hotel Wöbken",
    "phone": "0441 96677-0",
    "tourism": "hotel",
    "website": "http://www.hotelwoebken.de"
  }
},
{
  "type": "node",
  "id": 266843625,
  "lat": 53.1175030,
  "lon": 8.2585114,
  "tags": {
    "addr:city": "Oldenburg",
    "addr:country": "DE",
    "addr:housenumber": "1-3",
    "addr:postcode": "26135",
    "addr:street": "Gerhard-Stalling-Straße",
    "addr:suburb": "Tweelbäke",
    "amenity": "restaurant",
    "name": "Don Quichotte",
    "operator": "Oldenburger Mühlengastronomie GmbH",
    "phone": "0441 9990993",
    "website": "http://www.oldenburger-muehle.de"
  }
},
{
  "type": "node",
  "id": 267222107,
  "lat": 52.3362879,
  "lon": 8.0218463,
  "tags": {
    "addr:city": "Wallenhorst",
    "addr:country": "DE",
    "addr:housenumber": "5",
    "addr:postcode": "49134",
    "addr:street": "Osnabrücker Straße",
    "amenity": "bank",
    "atm": "yes",
    "name": "Volksbank Bramgau-Wittlage eG, Filiale Lechtingen",
    "opening_hours": "Mo-Fr 09:00-12:30, Mo,Fr 14:00-16:00",
    "operator": "Volksbank Bramgau-Wittlage eG",
    "phone": "05461 93100",
    "website": "http://www.vbank.de/",
    "wheelchair": "yes"
  }
},
{
  "type": "node",
  "id": 267243673,
  "lat": 52.2460826,
  "lon": 10.6544536,
  "tags": {
    "addr:city": "Cremlingen",
    "addr:country": "DE",
    "addr:housenumber": "8a",
    "addr:postcode": "38162",
    "addr:street": "Sickter Straße",
    "amenity": "police",
    "fax": "0 53 06 / 9 31 725",
    "name": "Polizeistation Cremlingen",
    "phone": "0 53 06 / 9 31 70"
  }
},
{
  "type": "node",
  "id": 267283088,
  "lat": 53.3901805,
  "lon": 7.2276361,
  "tags": {
    "addr:city": "Emden",
    "addr:country": "DE",
    "addr:housenumber": "103",
    "addr:postcode": "26721",
    "addr:street": "Gorch-Fock-Straße",
    "aeroway": "aerodrome",
    "email": "info@flugplatz-emden.de",
    "fax": "0492142434",
    "iata": "EME",
    "icao": "EDWE",
    "name": "Flugplatz Emden",
    "name:pl": "Lotnisko Emden",
    "phone": "0492142434",
    "website": "http://www.flugplatz-emden.de/",
    "wikidata": "Q567426",
    "wikipedia": "de:Flugplatz Emden"
  }
},
{
  "type": "node",
  "id": 267556344,
  "lat": 52.3866296,
  "lon": 9.7198834,
  "tags": {
    "addr:city": "Hannover",
    "addr:housenumber": "3",
    "addr:postcode": "30167",
    "addr:street": "Hahnenstraße",
    "amenity": "pub",
    "name": "Extrakt",
    "phone": "0511-7010142",
    "smoking": "no",
    "wheelchair": "no",
    "wheelchair:description": "Im Sommer Draußen Sitzplätze"
  }
},
{
  "type": "node",
  "id": 268349133,
  "lat": 53.2522969,
  "lon": 7.9332194,
  "tags": {
    "addr:city": "Westerstede",
    "addr:country": "DE",
    "addr:housenumber": "16",
    "addr:postcode": "26655",
    "addr:street": "Ammerlandallee",
    "amenity": "fast_food",
    "cuisine": "burger",
    "name": "McDonald's",
    "phone": "04488 859190",
    "toilets:wheelchair": "yes",
    "wheelchair": "yes"
  }
},
{
  "type": "node",
  "id": 268578837,
  "lat": 52.2085141,
  "lon": 9.0586260,
  "tags": {
    "addr:city": "Rinteln",
    "addr:housenumber": "5",
    "addr:postcode": "31737",
    "addr:street": "Hauptstraße",
    "contact:email": "info@zollhaus-rinteln.de",
    "contact:fax": "05751 - 77 61",
    "name": "Hotel Restaurant Altes Zollhaus",
    "phone": "05751 - 9 71 80",
    "tourism": "hotel",
    "website": "http://zollhaus-rinteln.de/",
    "wheelchair": "limited"
  }
},
{
  "type": "node",
  "id": 268807766,
  "lat": 52.3734390,
  "lon": 9.7071670,
  "tags": {
    "addr:city": "Hannover",
    "addr:country": "DE",
    "addr:housenumber": "49",
    "addr:postcode": "30451",
    "addr:street": "Limmerstraße",
    "amenity": "restaurant",
    "cuisine": "mexican",
    "entrance": "yes",
    "name": "Fischers",
    "phone": "049 511  44 14 04",
    "website": "http://www.estrella-gastro.de/fischers-linden.html",
    "wheelchair": "no"
  }
},
{
  "type": "node",
  "id": 269209697,
  "lat": 52.6375628,
  "lon": 9.9858235,
  "tags": {
    "addr:city": "Hambühren",
    "addr:housenumber": "9",
    "addr:postcode": "29313",
    "addr:street": "Im Dorfe",
    "amenity": "biergarten",
    "email": "luessmannshof@t-online.de",
    "name": "Lüßmanns Hof",
    "phone": "(05084) 5343",
    "url": "http://www.luessmannshof.de"
  }
},
{
  "type": "node",
  "id": 269401935,
  "lat": 52.2284134,
  "lon": 10.5260734,
  "tags": {
    "addr:city": "Braunschweig",
    "addr:country": "DE",
    "addr:housenumber": "8",
    "addr:postcode": "38124",
    "addr:street": "Görlitzstraße",
    "name": "Richters Altstadt-Bäckerei",
    "opening_hours": "Mo-Fr 06:30-18:00;Sa 06:30-13:00;Su 08:00-11:00",
    "phone": "0531 - 123 3744",
    "shop": "bakery",
    "website": "http://www.brotversteher.de"
  }
},
{
  "type": "node",
  "id": 269512987,
  "lat": 52.2671771,
  "lon": 10.5407863,
  "tags": {
    "addr:city": "Braunschweig",
    "addr:housenumber": "30",
    "addr:postcode": "38102",
    "addr:street": "Altewiekring",
    "amenity": "pharmacy",
    "email": "info@tauben-apotheke.de",
    "name": "Tauben Apotheke",
    "opening_hours": "Mo-Fr 08:00-18:30; Sa 08:00-13:00",
    "operator": "Isabell Müller-Duve",
    "phone": "0531334060",
    "website": "http://www.tauben-apotheke.de",
    "wheelchair": "yes"
  }
},
{
  "type": "node",
  "id": 269553777,
  "lat": 52.2092875,
  "lon": 9.5592259,
  "tags": {
    "addr:city": "Springe",
    "addr:housenumber": "3 a",
    "addr:postcode": "31832",
    "addr:street": "Hinter der Burg",
    "amenity": "library",
    "email": "info@stabi-springe.de",
    "fax": "(05041) 6 29 53",
    "name": "Stadtbibliothek",
    "opening_hours": "Tu 10:00-13:00,14:00-19:00; We 10:00-13:00,14:00-18:00; Th 12:00-18:00; Fr 09:00-13:00,14:00-18:00",
    "phone": "(05041) 77 03 05",
    "ref:isil": "DE-729",
    "toilets:wheelchair": "no",
    "website": "http://www.stadtbibliothek-springe.de",
    "wheelchair": "yes"
  }
},
{
  "type": "node",
  "id": 269785988,
  "lat": 52.4212374,
  "lon": 8.7387876,
  "tags": {
    "addr:city": "Diepenau",
    "addr:country": "DE",
    "addr:housenumber": "16",
    "addr:postcode": "31603",
    "addr:street": "Hauptstraße",
    "name": "Bäckerei Landcafe",
    "opening_hours": "Mo-Fr 06:00-18:00; Sa 06:00-13:00; Su 07:30-17:00",
    "operator": "Mike Sgorzali",
    "phone": "05775 - 96 60 97",
    "shop": "bakery",
    "website": "http://www.landcafe-diepenau.de/"
  }
},
{
  "type": "node",
  "id": 269786689,
  "lat": 52.4204018,
  "lon": 8.7461137,
  "tags": {
    "addr:city": "Diepenau",
    "addr:housenumber": "2",
    "addr:postcode": "31603",
    "addr:street": "Mindener Straße",
    "contact:fax": "05775 - 673",
    "name": "Bekemeier GmbH & Co. KG, Gartengeräte",
    "opening_hours": "Mo-Fr 08:00-12:00,13:00-18:00, Sa 08:00-12:00",
    "operator": "Friedhelm Bekemeier, Thomas Busse",
    "phone": "05775 - 344",
    "shop": "bicycle",
    "website": "http://www.bekemeier-lavelsloh.de/"
  }
},
{
  "type": "node",
  "id": 269787055,
  "lat": 52.4187991,
  "lon": 8.7175993,
  "tags": {
    "addr:city": "Diepenau",
    "addr:housenumber": "49",
    "addr:postcode": "31603",
    "addr:street": "Lange Straße",
    "contact:email": "Schlachthof-Schmidt@gmx.de",
    "contact:fax": "05775 - 14 83",
    "name": "Fleischerei Schmidt",
    "opening_hours": "Mo-Fr 08:00-18:00, Sa 08:00-13:00",
    "operator": "Klaus Schmidt, Robert Schmidt",
    "phone": "05775 - 271",
    "shop": "butcher",
    "website": "www.schmidt-diepenau.de/",
    "wheelchair": "no"
  }
},
{
  "type": "node",
  "id": 270195185,
  "lat": 52.2772168,
  "lon": 8.0409942,
  "tags": {
    "addr:city": "Osnabrück",
    "addr:housenumber": "24",
    "addr:postcode": "49074",
    "addr:street": "Bierstraße",
    "name": "Romantikhotel Walhalla",
    "phone": "(+49) 0 541 - 3491 - 0",
    "tourism": "hotel",
    "website": "http://www.hotel-walhalla.de/homepage/"
  }
},
{
  "type": "node",
  "id": 270433204,
  "lat": 53.0616392,
  "lon": 8.5224713,
  "tags": {
    "addr:city": "Ganderkesee",
    "addr:country": "DE",
    "addr:housenumber": "18",
    "addr:postcode": "27777",
    "addr:street": "Kühlinger Straße",
    "addr:suburb": "Grüppenbühren",
    "amenity": "restaurant",
    "email": "GasthausZurLinde@aol.com",
    "fax": "04222 70151",
    "name": "Gasthaus \"Zur Linde\"",
    "operator": "Olaf Sievers",
    "phone": "04222 2302",
    "toilets:wheelchair": "yes",
    "website": "http://www.gasthauszurlinde.net",
    "wheelchair": "yes"
  }
},
{
  "type": "node",
  "id": 270559901,
  "lat": 53.2629270,
  "lon": 7.9323384,
  "tags": {
    "addr:city": "Westerstede",
    "addr:country": "DE",
    "addr:housenumber": "16",
    "addr:postcode": "26655",
    "addr:street": "Am Esch",
    "name": "Netto Marken-Discount Westerstede",
    "opening_hours": "Mo-Sa 07:00-20:00",
    "phone": "04488 761877",
    "shop": "supermarket",
    "wheelchair": "yes"
  }
},
{
  "type": "node",
  "id": 270569397,
  "lat": 53.2581137,
  "lon": 7.9297867,
  "tags": {
    "addr:city": "Westerstede",
    "addr:country": "DE",
    "addr:housenumber": "3",
    "addr:postcode": "26655",
    "addr:street": "Kirchenstraße",
    "amenity": "pub",
    "name": "Bistro Cappuccino",
    "phone": "04488 862234",
    "wheelchair": "limited"
  }
},
{
  "type": "node",
  "id": 270774410,
  "lat": 53.1292407,
  "lon": 8.6286404,
  "tags": {
    "addr:city": "Altenesch",
    "addr:country": "DE",
    "addr:housenumber": "1",
    "addr:postcode": "27809",
    "addr:street": "Nobisstraße",
    "alt_name": "Melkhus Altenesch",
    "cuisine": "milk",
    "operator": "Stefanie Nobis",
    "phone": "0421 679467",
    "shop": "vacant"
  }
},
{
  "type": "node",
  "id": 271001445,
  "lat": 52.1863467,
  "lon": 10.0955397,
  "tags": {
    "addr:city": "Schellerten",
    "addr:housenumber": "1",
    "addr:postcode": "31174",
    "addr:street": "Berliner Straße",
    "amenity": "fuel",
    "brand": "Star",
    "fuel:lpg": "yes",
    "name": "Star",
    "operator": "Star",
    "phone": "05123-408720"
  }
},
{
  "type": "node",
  "id": 271001457,
  "lat": 52.1896807,
  "lon": 10.1062989,
  "tags": {
    "addr:city": "Schellerten",
    "addr:housenumber": "63",
    "addr:postcode": "31174",
    "addr:street": "Berliner Straße",
    "amenity": "pharmacy",
    "dispensing": "yes",
    "name": "Hirsch Apotheke",
    "phone": "05123-7874",
    "website": "http://www.hirsch-apotheke-schellerten.de"
  }
},
{
  "type": "node",
  "id": 271160190,
  "lat": 52.1024249,
  "lon": 9.3574373,
  "tags": {
    "amenity": "restaurant",
    "email": "info@pfannekuchen-hameln.de",
    "fax": "015151/41378",
    "name": "Pfannekuchen",
    "opening_hours": "Mo-Fr 11:00-15:00,17:00-22:00; Sa,Su,PH 10:00-22:00",
    "phone": "05151/41378",
    "website": "http://www.pfannekuchen-hameln.de",
    "wheelchair": "limited"
  }
},
{
  "type": "node",
  "id": 271479059,
  "lat": 53.5112088,
  "lon": 8.0923736,
  "tags": {
    "emergency": "phone",
    "name": "SOS-Notruftelefon",
    "phone": "04421 22238"
  }
},
{
  "type": "node",
  "id": 271803925,
  "lat": 53.6355281,
  "lon": 7.6127647,
  "tags": {
    "addr:city": "Esens",
    "addr:country": "DE",
    "addr:housenumber": "6",
    "addr:postcode": "26427",
    "addr:street": "Auricher Straße",
    "amenity": "fuel",
    "fax": "04971 290713",
    "name": "Score Esens",
    "operator": "Score",
    "phone": "04971 290711",
    "website": "http://www.score-tankstellen.de/",
    "wheelchair": "limited"
  }
},
{
  "type": "node",
  "id": 271804141,
  "lat": 53.2638229,
  "lon": 7.9336656,
  "tags": {
    "addr:city": "Westerstede",
    "addr:country": "DE",
    "addr:housenumber": "30",
    "addr:postcode": "26655",
    "addr:street": "Am Esch",
    "name": "Kiosk am Esch",
    "phone": "04488 527669",
    "shop": "kiosk",
    "wheelchair": "no"
  }
},
{
  "type": "node",
  "id": 271808489,
  "lat": 53.2567746,
  "lon": 7.9247143,
  "tags": {
    "addr:city": "Westerstede",
    "addr:country": "DE",
    "addr:housenumber": "6a",
    "addr:postcode": "26655",
    "addr:street": "Kuhlenstraße",
    "amenity": "cafe",
    "name": "Turm-Café",
    "phone": "04488 4849",
    "toilets:wheelchair": "no",
    "tourism": "viewpoint",
    "website": "www.turmcafe-wst.de",
    "wheelchair": "limited"
  }
},
{
  "type": "node",
  "id": 271963718,
  "lat": 51.8881628,
  "lon": 9.5702538,
  "tags": {
    "addr:city": "Negenborn",
    "addr:country": "DE",
    "addr:housenumber": "14",
    "addr:postcode": "37643",
    "addr:street": "Neue Straße",
    "amenity": "school",
    "name": "Grundschule Negenborn",
    "phone": "05532-8311",
    "wheelchair": "no"
  }
},
{
  "type": "node",
  "id": 271963769,
  "lat": 51.8849630,
  "lon": 9.5660678,
  "tags": {
    "addr:city": "Negenborn",
    "addr:country": "DE",
    "addr:housenumber": "3",
    "addr:postcode": "37643",
    "addr:street": "Neue Straße",
    "amenity": "fuel",
    "fuel:diesel": "yes",
    "fuel:e10": "yes",
    "fuel:lpg": "yes",
    "name": "Sparkuhle",
    "phone": "05532-8201",
    "wheelchair": "limited"
  }
},
{
  "type": "node",
  "id": 271963960,
  "lat": 51.8920143,
  "lon": 9.5730165,
  "tags": {
    "addr:city": "Negenborn",
    "addr:country": "DE",
    "addr:housenumber": "1",
    "addr:postcode": "37643",
    "addr:street": "Hooptalstraße",
    "amenity": "pub",
    "name": "Kanapée",
    "phone": "05532-81043",
    "wheelchair": "limited"
  }
},
{
  "type": "node",
  "id": 274426637,
  "lat": 52.6801938,
  "lon": 9.9219157,
  "tags": {
    "addr:housenumber": "10",
    "addr:postcode": "29308",
    "addr:street": "Brauckmanns Kerkstieg",
    "amenity": "restaurant",
    "cuisine": "german;burger;cake;savory_pancakes",
    "name": "Kalandstube",
    "opening_hours": "Tu-Fr 14:30-22:00; Sa-Su 12:00-22:00",
    "operator": "Carsten Lindhorst",
    "phone": "05143665675",
    "website": "http://www.kalandstube.de"
  }
},
{
  "type": "node",
  "id": 274751483,
  "lat": 53.2537344,
  "lon": 7.9176970,
  "tags": {
    "addr:city": "Westerstede",
    "addr:country": "DE",
    "addr:housenumber": "51",
    "addr:postcode": "26655",
    "addr:state": "Niedersachsen",
    "addr:street": "Kuhlenstraße",
    "name": "EDEKA Tiemann Westerstede",
    "opening_hours": "Mo-Fr 07:30-21:00; Sa 07:30-20:00",
    "operator": "Tiemann Verbrauchermärkte KG",
    "phone": "04488 71809",
    "shop": "supermarket"
  }
},
{
  "type": "node",
  "id": 274863571,
  "lat": 53.1162525,
  "lon": 8.0302190,
  "tags": {
    "addr:city": "Edewecht",
    "addr:country": "DE",
    "addr:housenumber": "6",
    "addr:postcode": "26188",
    "addr:street": "Hinterm Kälberhof",
    "addr:suburb": "Jeddeloh I",
    "amenity": "school",
    "name": "Grundschule Jeddeloh",
    "phone": "04405 8145"
  }
},
{
  "type": "node",
  "id": 275547996,
  "lat": 52.1500276,
  "lon": 9.9537347,
  "tags": {
    "addr:city": "Hildesheim",
    "addr:housenumber": "3",
    "addr:postcode": "31134",
    "addr:street": "Hindenburgplatz",
    "amenity": "cafe",
    "name": "Deseo",
    "phone": "0512139927",
    "toilets:wheelchair": "no",
    "website": "www.cafedeseo.de",
    "wheelchair": "limited"
  }
},
{
  "type": "node",
  "id": 275591437,
  "lat": 52.1499316,
  "lon": 9.9498648,
  "tags": {
    "addr:city": "Hildesheim",
    "addr:housenumber": "6",
    "addr:postcode": "31134",
    "addr:street": "Kläperhagen",
    "amenity": "restaurant",
    "cuisine": "italian;burger",
    "email": "service@goldmarie-hildesheim.de",
    "name": "Goldmarie",
    "phone": "0 51 21 - 177 36 30",
    "website": "www.goldmarie-hildesheim.de",
    "wheelchair": "limited"
  }
},
{
  "type": "node",
  "id": 276049755,
  "lat": 53.4748613,
  "lon": 7.8210822,
  "tags": {
    "name": "Paddel- & Pedalstation",
    "phone": "0491-91969630",
    "sport": "canoe"
  }
},
{
  "type": "node",
  "id": 276139440,
  "lat": 53.1907291,
  "lon": 7.7250003,
  "tags": {
    "addr:city": "Apen",
    "addr:country": "DE",
    "addr:hamlet": "Tange",
    "addr:housenumber": "85",
    "addr:postcode": "26689",
    "addr:street": "Tanger Hauptstraße",
    "amenity": "cafe",
    "email": "erika-oltmanns@t-online.de",
    "name": "Bauerncafé Oltmanns",
    "opening_hours": "May-Oct: We-Su 14:00-18:00",
    "operator": "Familie Lüken",
    "outdoor_seating": "yes",
    "phone": "04499 1080",
    "website": "http://www.ferienhof-oltmanns.de"
  }
},
{
  "type": "node",
  "id": 276396135,
  "lat": 52.2538828,
  "lon": 9.9644371,
  "tags": {
    "addr:city": "Algermissen",
    "addr:housenumber": "1",
    "addr:postcode": "31191",
    "addr:street": "Hottelner Straße",
    "amenity": "fuel",
    "name": "Avia",
    "opening_hours": "Mo-Fr 07:00-22:00; Sa 07:00-21:00",
    "phone": "05126-1689",
    "website": "http://www.avia.de",
    "wheelchair": "limited"
  }
},
{
  "type": "node",
  "id": 276664042,
  "lat": 52.1721266,
  "lon": 10.0392642,
  "tags": {
    "addr:city": "Schellerten",
    "addr:housenumber": "22",
    "addr:postcode": "31174",
    "addr:street": "Hildesheimer Straße",
    "addr:suburb": "Bettmar",
    "amenity": "fuel",
    "name": "HEM",
    "opening_hours": "Mo-Fr 05:00-22:00; Sa 06:00-22:00; Su 07:00-22:00",
    "phone": "05121-513557",
    "website": "http://www.meinehem.de"
  }
},
{
  "type": "node",
  "id": 277684532,
  "lat": 52.3549220,
  "lon": 9.7199040,
  "tags": {
    "addr:city": "Hannover",
    "addr:country": "DE",
    "addr:housenumber": "6",
    "addr:postcode": "30449",
    "addr:street": "Fischerhof",
    "amenity": "restaurant",
    "cuisine": "greek",
    "name": "Artemis",
    "phone": "0511-4582366"
  }
},
{
  "type": "node",
  "id": 277793937,
  "lat": 53.2569448,
  "lon": 7.9270299,
  "tags": {
    "addr:city": "Westerstede",
    "addr:country": "DE",
    "addr:housenumber": "6",
    "addr:postcode": "26655",
    "addr:street": "Am Markt",
    "amenity": "cafe",
    "name": "Eis Café Bistro Blumenberg",
    "outdoor_seating": "yes",
    "phone": "04488 71200",
    "toilets:wheelchair": "yes",
    "wheelchair": "yes"
  }
},
{
  "type": "node",
  "id": 277848559,
  "lat": 52.4898567,
  "lon": 9.2939584,
  "tags": {
    "addr:city": "Neustadt am Rübenberge",
    "addr:country": "DE",
    "addr:housenumber": "24",
    "addr:postcode": "31535",
    "addr:street": "Mardorfer Straße",
    "addr:suburb": "Mardorf",
    "amenity": "fast_food",
    "contact:fax": "05036 - 4 86",
    "cuisine": "fish_and_chips",
    "name": "Alte Schmiede Aalräucherei",
    "opening_hours": "May-Aug 09:30-18:00",
    "operator": "Ingo Bock",
    "phone": "05036 - 4 86",
    "website": "http://www.aalraeucherei-alte-schmiede.de/"
  }
},
{
  "type": "node",
  "id": 277979720,
  "lat": 53.3051150,
  "lon": 7.7490224,
  "tags": {
    "addr:city": "Uplengen",
    "addr:country": "DE",
    "addr:housenumber": "74",
    "addr:postcode": "26670",
    "addr:street": "Ostertorstraße",
    "addr:suburb": "Remels",
    "amenity": "restaurant",
    "cuisine": "italian",
    "name": "Columbus",
    "phone": "04956 990456",
    "website": "http://www.columbus-remels.de/",
    "wheelchair": "no"
  }
},
{
  "type": "node",
  "id": 277981517,
  "lat": 53.3044909,
  "lon": 7.7471217,
  "tags": {
    "addr:city": "Uplengen",
    "addr:country": "DE",
    "addr:housenumber": "62",
    "addr:postcode": "26670",
    "addr:street": "Ostertorstraße",
    "addr:suburb": "Remels",
    "name": "Combi-Verbrauchermarkt Remels",
    "opening_hours": "Mo-Sa 08:00-21:00",
    "phone": "04956 1078",
    "shop": "supermarket",
    "wheelchair": "yes"
  }
},
{
  "type": "node",
  "id": 278450208,
  "lat": 52.3681067,
  "lon": 7.4684441,
  "tags": {
    "amenity": "fuel",
    "fuel:adblue": "yes",
    "fuel:diesel": "yes",
    "fuel:e10": "yes",
    "fuel:lpg": "yes",
    "fuel:octane_95": "yes",
    "fuel:octane_98": "yes",
    "name": "Tankstelle Lölfin",
    "operator": "Arns",
    "phone": "05977 92644",
    "wheelchair": "yes"
  }
},
{
  "type": "node",
  "id": 279019188,
  "lat": 52.2926996,
  "lon": 8.0217254,
  "tags": {
    "addr:city": "Osnabrück",
    "addr:country": "DE",
    "addr:housenumber": "96",
    "addr:postcode": "49090",
    "addr:street": "Pagenstecherstraße",
    "amenity": "fast_food",
    "name": "Kentucky Fried Chicken (KFC)",
    "phone": "0541 4406417",
    "website": "http://www.kfc.de",
    "wheelchair": "yes"
  }
},
{
  "type": "node",
  "id": 279528354,
  "lat": 52.4538316,
  "lon": 9.3589367,
  "tags": {
    "addr:city": "Wunstorf",
    "addr:housenumber": "14",
    "addr:postcode": "31515",
    "addr:street": "Leinenweberstraße",
    "name": "Combi-Markt",
    "opening_hours": "Mo-Sa 08:00-20:00",
    "operator": "Combi-Verbrauchermarkt Einkaufsstätte GmbH & Co. KG",
    "phone": "05033 - 39 16 41",
    "shop": "supermarket",
    "wheelchair": "yes"
  }
},
{
  "type": "node",
  "id": 279557246,
  "lat": 53.5761450,
  "lon": 8.1033688,
  "tags": {
    "amenity": "restaurant",
    "cuisine": "chinese",
    "name": "Tsingtau",
    "phone": "04421 55123",
    "postal_code": "26388",
    "toilets:wheelchair": "no",
    "wheelchair": "limited"
  }
},
{
  "type": "node",
  "id": 279569377,
  "lat": 53.1482805,
  "lon": 11.0436353,
  "tags": {
    "addr:housenumber": "10",
    "addr:street": "Drawehnertorstraße",
    "email": "alex.boncourt@web.de",
    "name": "Hitzacker",
    "phone": "058629875765",
    "shop": "bicycle",
    "website": "http://fahrradwerft.de"
  }
},
{
  "type": "node",
  "id": 280718711,
  "lat": 52.3504474,
  "lon": 9.7737293,
  "tags": {
    "addr:city": "Hannover",
    "addr:country": "DE",
    "addr:housenumber": "58",
    "addr:postcode": "30519",
    "addr:street": "Liebrechtstraße",
    "amenity": "pharmacy",
    "fax": "(05 11) 8 38 6",
    "name": "Waldheim Apotheke",
    "phone": "(05 11) 83 1",
    "wheelchair": "yes"
  }
},
{
  "type": "node",
  "id": 281215182,
  "lat": 52.3557799,
  "lon": 8.2805114,
  "tags": {
    "addr:city": "Bohmte",
    "addr:country": "DE",
    "addr:housenumber": "2",
    "addr:postcode": "49163",
    "addr:street": "Am Leckermühlbach",
    "amenity": "restaurant",
    "name": "Altes Forsthaus - Restaurant, Café, Biergarten",
    "operator": "Rainer Stanski",
    "phone": "05471 955857"
  }
},
{
  "type": "node",
  "id": 281519811,
  "lat": 53.2639069,
  "lon": 7.9334972,
  "tags": {
    "addr:city": "Westerstede",
    "addr:country": "DE",
    "addr:housenumber": "30",
    "addr:postcode": "26655",
    "addr:street": "Am Esch",
    "amenity": "fast_food",
    "name": "Hille's Schlemmereck",
    "opening_hours": "Mo-Th 11:00-21:00, Fr-Su 11:00-22:00",
    "operator": "Hille Ebken",
    "phone": "04488 527652"
  }
},
{
  "type": "node",
  "id": 281568973,
  "lat": 52.4375994,
  "lon": 8.2740308,
  "tags": {
    "addr:city": "Bohmte",
    "addr:housenumber": "12",
    "addr:postcode": "49163",
    "addr:street": "Dammer Straße",
    "addr:suburb": "Hunteburg",
    "amenity": "bank",
    "atm": "yes",
    "name": "Sparkasse (Osnabrück)",
    "opening_hours": "Mo 08:30-12:30,14:30-16:30; Tu 08:30-12:30,14:30-17:30; We 08:30-12:30; Th 08:30-12:30,14:30-17:30; Fr 08:30-12:30,14:30-16:30",
    "phone": "05475 - 92020",
    "wheelchair": "yes"
  }
},
{
  "type": "node",
  "id": 282373363,
  "lat": 53.0889103,
  "lon": 8.1268009,
  "tags": {
    "addr:city": "Wardenburg",
    "addr:country": "DE",
    "addr:hamlet": "Achternmeer",
    "addr:housenumber": "162",
    "addr:postcode": "26203",
    "addr:street": "Korsorsstraße",
    "name": "Meyer",
    "phone": "04407 360",
    "shop": "bakery"
  }
},
{
  "type": "node",
  "id": 282934758,
  "lat": 53.2904486,
  "lon": 10.9479412,
  "tags": {
    "addr:city": "Amt Neuhaus",
    "addr:country": "DE",
    "addr:housenumber": "31c",
    "addr:postcode": "19273",
    "addr:street": "Bahnhofstraße",
    "addr:suburb": "Neuhaus",
    "name": "Brenn- und Baustoffhanfdel Holger Haul e.K.",
    "operator": "Holger Haul",
    "phone": "03884120766",
    "shop": "doityourself",
    "wheelchair": "yes"
  }
},
{
  "type": "node",
  "id": 282990627,
  "lat": 51.6559843,
  "lon": 10.3393273,
  "tags": {
    "access": "yes",
    "addr:city": "Herzberg am Harz",
    "addr:country": "DE",
    "addr:housenumber": "57",
    "addr:postcode": "37412",
    "addr:street": "Hauptstraße",
    "alt_name": "Löwenapotheke",
    "amenity": "pharmacy",
    "dispensing": "yes",
    "name": "Löwen Apotheke",
    "phone": "05521 89590",
    "website": "http://www.loewen-apotheke-herzberg.de",
    "wheelchair": "no"
  }
},
{
  "type": "node",
  "id": 283132685,
  "lat": 52.1567651,
  "lon": 10.5517633,
  "tags": {
    "name": "Richters Altstadt-Bäckerei",
    "opening_hours": "Mo-Fr 06:15-18:00; Sa 06:00-13:00; Su 07:00-17:00",
    "phone": "05331 - 683 95",
    "shop": "bakery",
    "website": "http://www.brotversteher.de",
    "wheelchair": "yes"
  }
},
{
  "type": "node",
  "id": 284157336,
  "lat": 52.3831314,
  "lon": 10.2645867,
  "tags": {
    "addr:city": "Edemissen",
    "addr:housenumber": "21",
    "addr:postcode": "31234",
    "addr:street": "Hermann-Löns-Straße",
    "amenity": "pharmacy",
    "dispensing": "yes",
    "name": "Dirk-Apotheke",
    "opening_hours": "Mo,Tu,Th,Fr 08:00-18:30; We,Sa 08:00-13:00",
    "phone": "05176-241",
    "website": "http://dirk-apotheke.de",
    "wheelchair": "yes"
  }
},
{
  "type": "node",
  "id": 284157782,
  "lat": 52.3859101,
  "lon": 10.2582945,
  "tags": {
    "addr:city": "Edemissen",
    "addr:housenumber": "23",
    "addr:postcode": "31234",
    "addr:street": "Peiner Straße",
    "amenity": "restaurant",
    "cuisine": "italian",
    "name": "Il Colosseo",
    "phone": "05176-922530",
    "smoking": "isolated",
    "wheelchair": "limited"
  }
},
{
  "type": "node",
  "id": 286263377,
  "lat": 52.3284502,
  "lon": 10.2344111,
  "tags": {
    "addr:city": "Peine",
    "addr:housenumber": "23",
    "addr:postcode": "31224",
    "addr:street": "Schwarzer Weg",
    "amenity": "fuel",
    "fuel:diesel": "yes",
    "fuel:octane_100": "yes",
    "fuel:octane_95": "yes",
    "fuel:octane_98": "yes",
    "name": "Esso",
    "opening_hours": "Mo-Su 05:00-23:00",
    "phone": "05171-6033",
    "website": "http://www.essofuelfinder.de",
    "wheelchair": "limited"
  }
},
{
  "type": "node",
  "id": 286700942,
  "lat": 53.5740453,
  "lon": 7.9007601,
  "tags": {
    "addr:city": "Jever",
    "addr:country": "DE",
    "addr:housenumber": "22",
    "addr:postcode": "26441",
    "addr:street": "Am Kirchplatz",
    "amenity": "cafe",
    "cuisine": "italian",
    "name": "Mamma Mia",
    "opening_hours": "Mo-Su 10:00-22:00",
    "phone": "04461 - 9177933",
    "wheelchair": "limited"
  }
},
{
  "type": "node",
  "id": 286809571,
  "lat": 52.8343855,
  "lon": 10.4863096,
  "tags": {
    "addr:city": "Wrestedt",
    "addr:housenumber": "8",
    "addr:postcode": "29559",
    "addr:street": "Breitenhees",
    "addr:suburb": "Breitenhess",
    "amenity": "fuel",
    "name": "Raiffeisen",
    "opening_hours": "Mo-Fr 05:00-23:00; Sa 07:00-22:00; Su 08:00-22:00",
    "phone": "05837-140077",
    "website": "http://www.hoyer-tankstellen.de"
  }
},
{
  "type": "node",
  "id": 287501062,
  "lat": 53.0185840,
  "lon": 8.3497520,
  "tags": {
    "addr:city": "Hatten",
    "addr:country": "DE",
    "addr:housenumber": "1",
    "addr:postcode": "26209",
    "addr:street": "Hauptstraße",
    "addr:suburb": "Kirchhatten",
    "name": "Der Dorfbäcker",
    "phone": "04482 308",
    "shop": "bakery",
    "wheelchair": "limited"
  }
},
{
  "type": "node",
  "id": 287601424,
  "lat": 52.1631978,
  "lon": 10.5342561,
  "tags": {
    "addr:city": "Wolfenbüttel",
    "addr:country": "DE",
    "addr:housenumber": "1",
    "addr:postcode": "38300",
    "addr:street": "Krambuden",
    "name": "Richters Altstadt-Bäckerei",
    "opening_hours": "Mo-Fr 07:00-18:30; Sa 06:30-14:00",
    "phone": "05331 - 855 966",
    "shop": "bakery",
    "website": "http://www.brotversteher.de",
    "wheelchair": "yes"
  }
},
{
  "type": "node",
  "id": 288582870,
  "lat": 52.4242476,
  "lon": 8.7313174,
  "tags": {
    "addr:city": "Diepenau",
    "addr:country": "DE",
    "addr:housenumber": "24",
    "addr:postcode": "31603",
    "addr:street": "Bahnhofstraße",
    "contact:fax": "05775 - 14 23",
    "name": "KFZ Werkstatt Kleine",
    "operator": "Hartwig Nolte",
    "phone": "05775 - 381",
    "shop": "car"
  }
},
{
  "type": "node",
  "id": 288830214,
  "lat": 53.3672612,
  "lon": 7.1803555,
  "tags": {
    "addr:city": "Emden",
    "addr:country": "DE",
    "addr:housenumber": "14",
    "addr:postcode": "26723",
    "addr:street": "Kopersand",
    "amenity": "pharmacy",
    "email": "constantia-apotheke@arcor.de",
    "fax": "0492166703",
    "name": "Constantia",
    "opening_hours": "Mo-Fr 08:00-13:30, 15:00-18:00; Sa 08:30-13:00",
    "phone": "0492165949",
    "website": "http://www.constantia-apotheke.de/",
    "wheelchair": "yes"
  }
},
{
  "type": "node",
  "id": 289921806,
  "lat": 52.2816621,
  "lon": 10.5671333,
  "tags": {
    "addr:city": "Braunschweig",
    "addr:country": "DE",
    "addr:housenumber": "41",
    "addr:postcode": "38104",
    "addr:street": "Friedrich-Voigtländer-Straße",
    "amenity": "police",
    "fax": "0531 4761030",
    "name": "Polizeidirektion Braunschweig + ZPD Bereitschaftspolizei",
    "phone": "0531 4760",
    "wheelchair": "yes"
  }
},
{
  "type": "node",
  "id": 290089717,
  "lat": 51.8258597,
  "lon": 9.4399389,
  "tags": {
    "addr:city": "Holzminden",
    "addr:housenumber": "16",
    "addr:postcode": "37603",
    "addr:street": "Stahler Ufer",
    "name": "Mobilcamping Holzminden",
    "phone": "05531-990965",
    "tourism": "camp_site",
    "website": "http://www.mobilcamping.de/",
    "wheelchair": "no"
  }
},
{
  "type": "node",
  "id": 290176210,
  "lat": 52.8170540,
  "lon": 8.2332555,
  "tags": {
    "addr:city": "Emstek",
    "addr:country": "DE",
    "addr:housenumber": "1",
    "addr:postcode": "49685",
    "addr:street": "Hansestraße",
    "addr:suburb": "Schneiderkrug",
    "amenity": "restaurant",
    "cuisine": "mexican",
    "email": "info@roadhouse-schneiderkrug.de",
    "name": "The Roadhouse",
    "phone": "04447 9699998",
    "website": "http://www.roadhouse-schneiderkrug.de"
  }
},
{
  "type": "node",
  "id": 290197048,
  "lat": 52.9021107,
  "lon": 10.4372514,
  "tags": {
    "addr:city": "Suderburg",
    "addr:housenumber": "67",
    "addr:postcode": "29556",
    "addr:street": "Bahnhofstraße",
    "amenity": "fuel",
    "brand": "HEM",
    "car_wash": "yes",
    "fuel:diesel": "yes",
    "fuel:e10": "yes",
    "fuel:lpg": "yes",
    "fuel:octane_95": "yes",
    "fuel:octane_98": "yes",
    "name": "Jantzon Tankstelle",
    "opening_hours": "Mo-Fr 06:00-21:00; Sa 07:00-21:00; Su 09:00-21:00",
    "phone": "04271-93060",
    "website": "http://www.jantzon-tankstellen.de"
  }
},
{
  "type": "node",
  "id": 291331255,
  "lat": 52.3738308,
  "lon": 9.7348646,
  "tags": {
    "addr:city": "Hannover",
    "addr:housenumber": "24",
    "addr:postcode": "30159",
    "addr:street": "Schmiedestraße",
    "building": "yes",
    "name": "SFU Sachen für Unterwegs",
    "opening_hours": "Mo-Fr 10:00-19:00; Sa 10:00-18:00",
    "phone": "0511-4503010",
    "shop": "outdoor",
    "website": "http://www.sfu.de",
    "wheelchair": "no"
  }
},
{
  "type": "node",
  "id": 292753806,
  "lat": 53.0614463,
  "lon": 8.1968432,
  "tags": {
    "addr:housenumber": "250",
    "addr:street": "Oldenburger Straße",
    "amenity": "bank",
    "email": "wardenburg@olb.de",
    "name": "OLB Wardenburg",
    "opening_hours": "Mo 08:30-12:30,14:00-16:00; Tu 08:30-12:30,14:00-18:00; We 08:30-12:30,14:00-16:00; Th 08:30-12:30,14:00-18:00; Fr 08:30-14:30",
    "operator": "Oldenburgerische Landesbank",
    "phone": "49-4407-91990",
    "wheelchair": "limited",
    "wheelchair:description": "Der Eingang ist Rollstuhl gerecht und alle Räume sind gut zu erreichen. Außerdem kann man an die Automaten heran kommen. Leider gibt es keine Behindertengerechte Toilette da die OLB keine öffentlichen Toiletten hat. (Igs irgend wie anders)"
  }
},
{
  "type": "node",
  "id": 292753833,
  "lat": 53.0507975,
  "lon": 8.1997887,
  "tags": {
    "addr:housenumber": "15",
    "addr:street": "Rheinstraße",
    "created_by": "JOSM",
    "email": "info@rwg-wardenburg.de",
    "name": "Raiffeisen-Markt",
    "opening_hours": "Mo-Fr 09:00-18:00; Sa 09:00-13:00",
    "phone": "044079149920",
    "shop": "doityourself",
    "website": "www.rwg-wardenburg.de",
    "wheelchair": "yes"
  }
},
{
  "type": "node",
  "id": 292753843,
  "lat": 53.0525466,
  "lon": 8.2004847,
  "tags": {
    "addr:city": "Wardenburg",
    "addr:housenumber": "6",
    "addr:postcode": "26203",
    "addr:street": "Rheinestraße",
    "name": "Aldi",
    "phone": "080072344870",
    "shop": "supermarket",
    "wheelchair": "limited",
    "wheelchair:description": "Keine Behinderte Toilette\ngeschr. IGS irgendwie anders"
  }
},
{
  "type": "node",
  "id": 292949477,
  "lat": 53.2361657,
  "lon": 8.3680964,
  "tags": {
    "addr:city": "Elsfleth",
    "addr:housenumber": "39a",
    "addr:postcode": "26931",
    "addr:street": "Bardenfleth",
    "amenity": "cafe",
    "name": "Moorriemer Landcafe",
    "phone": "04485 462666",
    "website": "http://www.moorriemerlandcafe.de/"
  }
},
{
  "type": "node",
  "id": 293238696,
  "lat": 53.5572514,
  "lon": 8.0925986,
  "tags": {
    "name": "Zweiräder & mehr",
    "phone": "04421 83700",
    "shop": "bicycle",
    "wheelchair": "yes"
  }
},
{
  "type": "node",
  "id": 293399026,
  "lat": 52.3230840,
  "lon": 10.2260709,
  "tags": {
    "amenity": "restaurant",
    "name": "Bodega",
    "phone": "05171-9886513",
    "website": "http://www.bodega-peine.com",
    "wheelchair": "no"
  }
},
{
  "type": "node",
  "id": 293974164,
  "lat": 52.3642894,
  "lon": 9.6726464,
  "tags": {
    "addr:city": "Hannover",
    "addr:country": "DE",
    "addr:housenumber": "1",
    "addr:postcode": "30455",
    "addr:street": "Lehmannstraße",
    "amenity": "police",
    "name": "Polizeistation Badenstedt",
    "phone": "0511 1093471",
    "wheelchair": "unknown"
  }
},
{
  "type": "node",
  "id": 293980377,
  "lat": 52.3383099,
  "lon": 9.8131953,
  "tags": {
    "addr:city": "Hannover",
    "addr:housenumber": "78",
    "addr:postcode": "30539",
    "addr:street": "Wülfeler Straße",
    "name": "Lidl",
    "opening_hours": "Mo-Sa 08:00-21:00",
    "operator": "Lidl E-Commerce International GmbH & Co. KG",
    "phone": "0800 4353361",
    "shop": "supermarket",
    "toilets:wheelchair": "yes",
    "website": "http://www.lidl.de/filialen/hannover/bemerode-wuelfeler-str-78.html",
    "wheelchair": "yes",
    "wheelchair:description": "Lidl ist mit dem Rollstuhl gut zu erreichen, über einen extra gekennzeichneten Rollstuhlweg. Einkausmöglichkeit rollstuhlgerecht. Breite Gänge und breite Kasseneingänge. Auch für Elekto-Rollstuhlfahrer geeignet."
  }
},
{
  "type": "node",
  "id": 293980380,
  "lat": 52.3378814,
  "lon": 9.8142365,
  "tags": {
    "addr:city": "Hannover",
    "addr:country": "DE",
    "addr:housename": "Restaurant Montelliana",
    "addr:housenumber": "77",
    "addr:postcode": "30539",
    "addr:street": "Wülfeler Straße",
    "amenity": "restaurant",
    "cuisine": "italian",
    "name": "Montelliana",
    "phone": "0511 98226689",
    "wheelchair": "yes",
    "wheelchair:description": "Eingang ebenerdig. Geräumiger, ebenerdiger Innenraum."
  }
},
{
  "type": "node",
  "id": 294002721,
  "lat": 53.3722555,
  "lon": 7.2065307,
  "tags": {
    "addr:city": "Emden",
    "addr:country": "DE",
    "addr:housenumber": "96",
    "addr:postcode": "26721",
    "addr:street": "Neutorstraße",
    "amenity": "pharmacy",
    "contact:email": "info@adler-apotheke-emden.de",
    "contact:fax": "+49 4921 930322",
    "contact:phone": "+49 4921 93030",
    "contact:website": "http://www.adler-apotheke-emden.de",
    "fax": "04921930322",
    "name": "Adler Apotheke",
    "opening_hours": "Mo-Fr 08:00-18:30; Sa 09:00-13:00",
    "operator": "Okka und Sascha Kühne",
    "phone": "0492193030",
    "wheelchair": "limited"
  }
},
{
  "type": "node",
  "id": 294011423,
  "lat": 53.3707996,
  "lon": 7.2063157,
  "tags": {
    "addr:city": "Emden",
    "addr:country": "DE",
    "addr:housenumber": "72",
    "addr:postcode": "26721",
    "addr:street": "Neutorstraße",
    "amenity": "pharmacy",
    "dispensing": "yes",
    "email": "info@hippo-apohteke.de",
    "fax": "0492131257",
    "health_facility:type": "pharmacy",
    "medical_system:western": "yes",
    "name": "Hippo-Apotheke",
    "opening_hours": "Mo-Fr 08:30-18:30; Sa 08:30-13:00",
    "phone": "0492131222",
    "website": "http://www.hippo-apotheke.de/",
    "wheelchair": "yes"
  }
},
{
  "type": "node",
  "id": 294323723,
  "lat": 53.1895225,
  "lon": 8.2025199,
  "tags": {
    "addr:city": "Oldenburg",
    "addr:housenumber": "56",
    "addr:postcode": "26125",
    "addr:street": "Ofenerdieker Straße",
    "amenity": "bank",
    "atm": "yes",
    "emergency": "defibrillator",
    "name": "Raiffeisenbank Oldenburg eG",
    "opening_hours": "Mo-We 08:00-12:30,14:00-17:00;Th 08:00-12:30,14:00-18:00;Fr 08:00-13:00",
    "operator": "Raiffeisenbank Oldenburg eG",
    "phone": "0441/96095-18",
    "source": "Eigenpflege durch die Bank",
    "website": "www.raiba-oldenburg.de",
    "wheelchair": "yes",
    "wikidata": "Q2127595",
    "wikipedia": "de:Raiffeisenbank Oldenburg"
  }
},
{
  "type": "node",
  "id": 295000228,
  "lat": 52.3277313,
  "lon": 9.7769052,
  "tags": {
    "addr:city": "Hannover",
    "addr:country": "DE",
    "addr:housenumber": "380",
    "addr:postcode": "30519",
    "addr:street": "Hildesheimer Straße",
    "amenity": "biergarten",
    "name": "Wülfeler Biergarten",
    "phone": "0511 876060",
    "website": "http://www.wuelfeler-biergarten.de",
    "wheelchair": "limited"
  }
},
{
  "type": "node",
  "id": 295176631,
  "lat": 52.1018030,
  "lon": 8.0946060,
  "tags": {
    "amenity": "restaurant",
    "cuisine": "asian",
    "name": "WOK Express",
    "opening_hours": "Tu-Sa 11:00-15:00,17:00-22:00; Su 11:00-22:00",
    "phone": "++49 5424 293298",
    "wheelchair": "yes"
  }
},
{
  "type": "node",
  "id": 295183361,
  "lat": 53.1700552,
  "lon": 7.9987279,
  "tags": {
    "addr:city": "Bad Zwischenahn",
    "addr:country": "DE",
    "addr:housenumber": "2",
    "addr:postcode": "26160",
    "addr:street": "Im Doorgrund",
    "addr:suburb": "Specken",
    "amenity": "fuel",
    "brand": "Avia",
    "fuel:diesel": "yes",
    "fuel:octane_91": "yes",
    "fuel:octane_95": "yes",
    "name": "Avia Servicestation",
    "operator": "Reinhard Warnken",
    "phone": "04403 910160",
    "shop": "convenience"
  }
},
{
  "type": "node",
  "id": 295670736,
  "lat": 52.4952201,
  "lon": 9.3412011,
  "tags": {
    "addr:city": "Neustadt am Rübenberge",
    "addr:housenumber": "20",
    "addr:postcode": "31535",
    "addr:street": "Kiefernweg",
    "amenity": "restaurant",
    "name": "Strandhotel Weißer Berg",
    "phone": "05036 458",
    "tourism": "hotel"
  }
},
{
  "type": "node",
  "id": 296131378,
  "lat": 52.3439350,
  "lon": 9.3844902,
  "tags": {
    "addr:city": "Bad Nenndorf",
    "addr:housenumber": "1-3",
    "addr:postcode": "31542",
    "addr:street": "Im Niedernfeld",
    "name": "Delphin",
    "operator": "DLRG",
    "phone": "05723 955155",
    "toilets:wheelchair": "yes",
    "tourism": "hotel",
    "website": "http://www.hotel-delphin.de/startseite/",
    "wheelchair": "yes"
  }
},
{
  "type": "node",
  "id": 296977112,
  "lat": 52.4896588,
  "lon": 9.2923668,
  "tags": {
    "addr:city": "Neustadt am Rübenberge",
    "addr:country": "DE",
    "addr:housenumber": "17",
    "addr:postcode": "31535",
    "addr:street": "Mardorfer Straße",
    "addr:suburb": "Mardorf",
    "amenity": "restaurant",
    "cuisine": "chinese",
    "name": "Asia Restaurant Xuan",
    "opening_hours": "Mo-Su 11:30-15:00,17:30-23:00",
    "phone": "05036 - 92 52 49",
    "toilets:wheelchair": "no",
    "wheelchair": "yes"
  }
},
{
  "type": "node",
  "id": 297120260,
  "lat": 52.4895462,
  "lon": 9.2894161,
  "tags": {
    "addr:city": "Neustadt am Rübenberge",
    "addr:country": "DE",
    "addr:housenumber": "5",
    "addr:postcode": "31535",
    "addr:street": "Mardorfer Straße",
    "addr:suburb": "Mardorf",
    "contact:email": "mailbox@baeckerei-lohrer.de",
    "contact:fax": "05036 - 92 42 22",
    "name": "Bäckerei Lohrer",
    "operator": "Torsten Lohrer",
    "phone": "05036 - 438",
    "shop": "bakery",
    "website": "http://www.baeckerei-lohrer.de/index.html"
  }
},
{
  "type": "node",
  "id": 298184100,
  "lat": 52.3578052,
  "lon": 9.8621645,
  "tags": {
    "addr:city": "Hannover",
    "addr:country": "DE",
    "addr:postcode": "30559",
    "addr:street": "B-65 Südseite",
    "amenity": "fuel",
    "brand": "ARAL",
    "fax": "0511/9508956",
    "fuel:diesel": "yes",
    "fuel:e10": "yes",
    "fuel:octane_95": "yes",
    "operator": "ARAL AG",
    "phone": "0511/9508955",
    "shop": "yes",
    "surveillance": "outdoor",
    "tenant": "Klaus Hoffmann"
  }
},
{
  "type": "node",
  "id": 298839839,
  "lat": 53.3452659,
  "lon": 7.4544589,
  "tags": {
    "addr:city": "Moormerland",
    "addr:country": "DE",
    "addr:hamlet": "Ayenwolde",
    "addr:housenumber": "16",
    "addr:postcode": "26802",
    "addr:street": "Küsterstraße",
    "amenity": "cafe",
    "email": "alte-kuesterei@gmx.de",
    "name": "Alte Küsterei - Teestube und Café",
    "note:de": "nur am Wochenende geöffnet",
    "opening_hours": "Sa-Su 14:00-18:00",
    "phone": "04945-1809",
    "website": "http://www.alte-kuesterei-ayenwolde.de"
  }
},
{
  "type": "node",
  "id": 300296964,
  "lat": 51.8833868,
  "lon": 9.6310844,
  "tags": {
    "addr:city": "Stadtoldendorf",
    "addr:housenumber": "13",
    "addr:postcode": "37627",
    "addr:street": "Hagentorstraße",
    "amenity": "place_of_worship",
    "denomination": "catholic",
    "name": "Herz-Jesu-Kirche",
    "phone": "05532-2147",
    "religion": "christian",
    "wheelchair": "limited"
  }
},
{
  "type": "node",
  "id": 300296965,
  "lat": 51.8886375,
  "lon": 9.6292011,
  "tags": {
    "addr:city": "Stadtoldendorf",
    "addr:housenumber": "5",
    "addr:postcode": "37627",
    "addr:street": "Hohleburgweg",
    "amenity": "place_of_worship",
    "denomination": "baptist",
    "name": "Gemeinde der Baptisten",
    "phone": "05532-999929",
    "religion": "christian",
    "wheelchair": "limited"
  }
},
{
  "type": "node",
  "id": 300416275,
  "lat": 51.8835434,
  "lon": 9.6249933,
  "tags": {
    "addr:city": "Stadtoldendorf",
    "addr:housenumber": "4",
    "addr:postcode": "37627",
    "addr:street": "Kirchstraße",
    "amenity": "townhall",
    "name": "Rathaus Stadtoldendorf",
    "phone": "05532-9005ext.0",
    "wheelchair": "limited"
  }
},
{
  "type": "node",
  "id": 300416276,
  "lat": 51.8830460,
  "lon": 9.6245398,
  "tags": {
    "addr:city": "Stadtoldendorf",
    "addr:housenumber": "4",
    "addr:postcode": "37627",
    "addr:street": "Amtsstraße",
    "amenity": "police",
    "name": "Polizei Stadtoldendorf",
    "phone": "05532-9013ext.0",
    "wheelchair": "no"
  }
},
{
  "type": "node",
  "id": 300416278,
  "lat": 51.8818054,
  "lon": 9.6252643,
  "tags": {
    "addr:city": "Stadtoldendorf",
    "addr:housenumber": "6a",
    "addr:postcode": "37627",
    "addr:street": "Neue Straße",
    "amenity": "bank",
    "atm": "yes",
    "name": "Norddeutsche Landesbank",
    "phone": "05532-50080",
    "wheelchair": "limited"
  }
},
{
  "type": "node",
  "id": 300617307,
  "lat": 51.5707630,
  "lon": 10.1014670,
  "tags": {
    "addr:city": "Ebergötzen",
    "addr:housenumber": "4",
    "addr:postcode": "37136",
    "addr:street": "Neustadt",
    "amenity": "pharmacy",
    "name": "Wilhelm-Busch-Apotheke",
    "opening_hours": "Mo-Fr 08:00-13:00,14:00-18:00; Sa 08:00-13:00",
    "phone": "05507 444",
    "website": "http://www.aponet.de/37136/Wilhelm_Busch_Apotheke/"
  }
},
{
  "type": "node",
  "id": 300691399,
  "lat": 51.9272164,
  "lon": 9.6372587,
  "tags": {
    "addr:city": "Eschershausen",
    "addr:housenumber": "10",
    "addr:postcode": "37632",
    "addr:street": "Steinweg",
    "amenity": "bank",
    "atm": "yes",
    "created_by": "Svan",
    "name": "Norddeutsche Landesbank",
    "phone": "05534-3030",
    "wheelchair": "limited"
  }
},
{
  "type": "node",
  "id": 300824818,
  "lat": 51.9346039,
  "lon": 9.6683187,
  "tags": {
    "addr:city": "Holzen",
    "addr:housenumber": "6",
    "addr:postcode": "37632",
    "addr:street": "Felsenweg",
    "amenity": "pub",
    "name": "Samsen",
    "phone": "05534-94050",
    "wheelchair": "limited"
  }
},
{
  "type": "node",
  "id": 300867073,
  "lat": 51.8934675,
  "lon": 9.6810757,
  "tags": {
    "addr:city": "Lenne",
    "addr:housenumber": "14",
    "addr:postcode": "37627",
    "addr:street": "Breite Straße",
    "name": "Nahkauf",
    "phone": "05532-3667",
    "shop": "supermarket",
    "wheelchair": "limited"
  }
},
{
  "type": "node",
  "id": 301795803,
  "lat": 51.8820771,
  "lon": 9.6244229,
  "tags": {
    "addr:city": "Stadtoldendorf",
    "addr:housenumber": "2a",
    "addr:postcode": "37627",
    "addr:street": "Neue Straße",
    "amenity": "pharmacy",
    "dispensing": "yes",
    "name": "Homburgapotheke",
    "phone": "05532-2688",
    "wheelchair": "no"
  }
},
{
  "type": "node",
  "id": 301798588,
  "lat": 51.8820712,
  "lon": 9.6322471,
  "tags": {
    "addr:city": "Stadtoldendorf",
    "addr:housenumber": "38",
    "addr:postcode": "37627",
    "addr:street": "Neue Straße",
    "name": "Lidl",
    "phone": "0800-4353361",
    "shop": "supermarket",
    "wheelchair": "limited"
  }
},
{
  "type": "node",
  "id": 301838929,
  "lat": 51.8767738,
  "lon": 9.6272669,
  "tags": {
    "addr:city": "Stadtoldendorf",
    "addr:housenumber": "15",
    "addr:postcode": "37627",
    "addr:street": "Rumbruchsweg",
    "amenity": "school",
    "name": "Homburg Haupt- und Realschule",
    "phone": "05532-500310",
    "wheelchair": "limited"
  }
},
{
  "type": "node",
  "id": 302195603,
  "lat": 53.3680564,
  "lon": 7.2035285,
  "tags": {
    "addr:city": "Emden",
    "addr:country": "DE",
    "addr:housenumber": "18",
    "addr:postcode": "26721",
    "addr:street": "Neuer Markt",
    "amenity": "pharmacy",
    "contact:email": "markt-apotheke.emden@t-online.de",
    "contact:fax": "+49 4921 977520",
    "contact:phone": "+49 4921 97750",
    "dispensing": "yes",
    "fax": "04921977520",
    "health_facility:type": "pharmacy",
    "medical_system:western": "yes",
    "name": "Markt-Apotheke",
    "opening_hours": "Mo-Fr 08:00-18:30; Sa 08:00-13:30",
    "operator": "Dr. Annette Ites",
    "phone": "0492197750",
    "wheelchair": "limited"
  }
},
{
  "type": "node",
  "id": 302197049,
  "lat": 53.3695736,
  "lon": 7.2050326,
  "tags": {
    "addr:city": "Emden",
    "addr:country": "DE",
    "addr:housenumber": "3",
    "addr:postcode": "26721",
    "addr:street": "An der Berufsschule",
    "amenity": "library",
    "email": "stadtbuecherei@vhs-emden.de",
    "fax": "04921915591",
    "name": "Stadtbücherei",
    "opening_hours": "Mo-We 10:00-17:00; Th 14:00-19:00; Fr 10:00-13:00",
    "phone": "04921915566",
    "toilets:wheelchair": "yes",
    "website": "www.stadtbuecherei-emden.de",
    "wheelchair": "yes"
  }
},
{
  "type": "node",
  "id": 302552841,
  "lat": 53.2562865,
  "lon": 7.9298254,
  "tags": {
    "addr:city": "Westerstede",
    "addr:country": "DE",
    "addr:housenumber": "13",
    "addr:postcode": "26655",
    "addr:street": "Gaststraße",
    "name": "Bäckerei Grehl",
    "phone": "04488 2184",
    "shop": "bakery"
  }
},
{
  "type": "node",
  "id": 302892305,
  "lat": 52.4267031,
  "lon": 9.5958950,
  "tags": {
    "addr:housenumber": "1",
    "addr:street": "Havelser Straße",
    "amenity": "cafe",
    "cuisine": "italian",
    "description": "Eiscafe, Kaffee, Toast, Pasta, Nudelgerichte, Cappuccino, Snacks",
    "name": "Gelatok",
    "phone": "0513193116",
    "takeaway": "yes",
    "wheelchair": "yes"
  }
},
{
  "type": "node",
  "id": 303252717,
  "lat": 52.3176868,
  "lon": 9.7910281,
  "tags": {
    "addr:city": "Laatzen",
    "addr:country": "DE",
    "addr:housenumber": "47",
    "addr:postcode": "30880",
    "addr:street": "Hildesheimer Straße",
    "name": "Netto",
    "opening_hours": "Mo-Sa 7:00-22:00",
    "phone": "0511 8608665",
    "shop": "supermarket",
    "surveillance": "indoor",
    "website": "http://www.netto-online.de",
    "wheelchair": "yes"
  }
},
{
  "type": "node",
  "id": 303573597,
  "lat": 52.3991952,
  "lon": 9.7769755,
  "tags": {
    "addr:city": "Hannover",
    "addr:country": "DE",
    "addr:housenumber": "183",
    "addr:postcode": "30177",
    "addr:street": "Podbielskistraße",
    "check_date": "2016-01-08",
    "email": "info@fahrrad-burckhardt.de",
    "name": "Burckhardt",
    "opening_hours": "Mo-Fr 09:00-18:00; Sa 09:00-14:00",
    "phone": "0511/691771",
    "shop": "bicycle",
    "website": "http://www.fahrrad-burckhardt.de/fahrrad-burckhardt-hannover/",
    "wheelchair": "limited"
  }
},
{
  "type": "node",
  "id": 303596792,
  "lat": 53.2524016,
  "lon": 7.9301592,
  "tags": {
    "addr:city": "Westerstede",
    "addr:country": "DE",
    "addr:housenumber": "13",
    "addr:postcode": "26655",
    "addr:street": "Wilhelm-Geiler-Straße",
    "amenity": "restaurant",
    "name": "Lotos-Blüte",
    "opening_hours": "mo-sa 7:00-20:00",
    "phone": "04488 8604015",
    "wheelchair": "no"
  }
},
{
  "type": "node",
  "id": 303596846,
  "lat": 53.2526606,
  "lon": 7.9119251,
  "tags": {
    "addr:city": "Westerstede",
    "addr:country": "DE",
    "addr:housenumber": "12-18",
    "addr:postcode": "26655",
    "addr:street": "Max-Eyth-Straße",
    "amenity": "school",
    "name": "DEULA Westerstede",
    "note": "Deutsche Lehranstalt für Agrartechnik",
    "operator": "DEULA Westerstede gGmbH",
    "phone": "04488 8301-0"
  }
},
{
  "type": "node",
  "id": 303729792,
  "lat": 52.2696191,
  "lon": 9.4075500,
  "tags": {
    "amenity": "restaurant",
    "cuisine": "german",
    "name": "Forsthaus Blumenhagen",
    "opening_hours": "Th-Su 11:00-21:00; PH 11:00-21:00",
    "phone": "05043/1833",
    "website": "http://www.forsthaus-blumenhagen.de/",
    "wheelchair": "limited"
  }
},
{
  "type": "node",
  "id": 303803296,
  "lat": 52.2766180,
  "lon": 8.0515309,
  "tags": {
    "addr:city": "Osnabrück",
    "addr:housenumber": "5",
    "addr:postcode": "49074",
    "addr:street": "Breiter Gang",
    "amenity": "restaurant",
    "cuisine": "steak_house",
    "name": "Das kleine Rodizio",
    "phone": "0541-1811702",
    "website": "http://www.fazenda-rodizio.de",
    "wheelchair": "no"
  }
},
{
  "type": "node",
  "id": 304143518,
  "lat": 51.9679649,
  "lon": 9.5238072,
  "tags": {
    "addr:city": "Bodenwerder",
    "addr:housenumber": "30",
    "addr:postcode": "37619",
    "addr:street": "Alpkestraße",
    "name": "Haus Hubertus, Bodenwerder",
    "phone": "05533 5636",
    "tourism": "guest_house",
    "website": "http://www.haushubertus.net",
    "wheelchair": "no"
  }
},
{
  "type": "node",
  "id": 304320064,
  "lat": 52.2757248,
  "lon": 8.0654206,
  "tags": {
    "addr:housenumber": "69",
    "addr:street": "Bursche Straße",
    "amenity": "fast_food",
    "name": "Pizza Palast",
    "phone": "0541 2051888",
    "website": "http://www.pizzapalastosnabrueck.de/",
    "wheelchair": "yes"
  }
},
{
  "type": "node",
  "id": 304320085,
  "lat": 52.2726620,
  "lon": 8.0584924,
  "tags": {
    "addr:city": "Osnabrück",
    "addr:housenumber": "5",
    "addr:postcode": "49074",
    "addr:street": "Theodor-Heuss-Platz",
    "amenity": "restaurant",
    "capacity": "70",
    "cuisine": "german,_regional,_burger,_steaks,_fingerfood,_menüs",
    "level": "0",
    "name": "advena Restaurant-Bistro-Bar",
    "opening_hours": "07:30-23:00",
    "outdoor_seating": "yes",
    "phone": "05413317100",
    "smoking": "no",
    "takeaway": "no",
    "website": "www.hohenzollern.advenahotels.com/de/gastronomie",
    "wheelchair": "yes"
  }
},
{
  "type": "node",
  "id": 304577797,
  "lat": 53.2520612,
  "lon": 7.9386651,
  "tags": {
    "addr:city": "Westerstede",
    "addr:country": "DE",
    "addr:housenumber": "15",
    "addr:postcode": "26655",
    "addr:street": "Goethestraße",
    "amenity": "dentist",
    "dispensing": "yes",
    "name": "Feldmann, Rainer",
    "phone": "04488 73377",
    "wheelchair": "limited"
  }
},
{
  "type": "node",
  "id": 304580850,
  "lat": 52.1556281,
  "lon": 10.5293376,
  "tags": {
    "addr:city": "Wolfenbüttel",
    "addr:country": "DE",
    "addr:housenumber": "13",
    "addr:postcode": "38304",
    "addr:state": "Niedersachsen",
    "addr:street": "Im Kalten Tale",
    "email": "autohaus@auto-wf.de",
    "name": "Hollwig & Gatzemeier GmbH",
    "opening_hours": "Mo-Th 07:00-18:00; Fr 07:00-17:00; Sa 09:00-12:00",
    "operator": "Opel",
    "phone": "0049533195510",
    "shop": "car",
    "website": "http://www.opel-wf.de",
    "wheelchair": "no"
  }
},
{
  "type": "node",
  "id": 304603883,
  "lat": 53.3706207,
  "lon": 7.2063292,
  "tags": {
    "addr:city": "Emden",
    "addr:country": "DE",
    "addr:housenumber": "70",
    "addr:postcode": "26721",
    "addr:street": "Neutorstraße",
    "description": "ehemals Grusewsky",
    "email": "abinsgrusewsky@gmail.com",
    "phone": "049219098029",
    "website": "http://www.grusewsky-emden.de/"
  }
},
{
  "type": "node",
  "id": 305056917,
  "lat": 51.9840864,
  "lon": 9.4694335,
  "tags": {
    "addr:city": "Hehlen",
    "addr:postcode": "37619",
    "addr:street": "Am Thie",
    "amenity": "place_of_worship",
    "denomination": "lutheran",
    "name": "Immanuel-Kirche",
    "phone": "05533-2850",
    "religion": "christian",
    "wheelchair": "no"
  }
},
{
  "type": "node",
  "id": 305056922,
  "lat": 51.9854798,
  "lon": 9.4737728,
  "tags": {
    "addr:city": "Hehlen",
    "addr:country": "DE",
    "addr:housenumber": "24",
    "addr:postcode": "37619",
    "addr:street": "Hauptstraße",
    "amenity": "bank",
    "atm": "yes",
    "name": "Volksbank",
    "operator": "Volksbank Weserbergland eG",
    "phone": "05533-9718ext.0",
    "wheelchair": "limited"
  }
},
{
  "type": "node",
  "id": 305056923,
  "lat": 51.9873930,
  "lon": 9.4744528,
  "tags": {
    "addr:city": "Hehlen",
    "addr:housenumber": "2",
    "addr:postcode": "37619",
    "addr:street": "Schlossstraße",
    "historic": "castle",
    "name": "Wasserschloss Hehlen",
    "phone": "05533-409154",
    "tourism": "attraction",
    "wheelchair": "limited"
  }
},
{
  "type": "node",
  "id": 305057551,
  "lat": 51.9773037,
  "lon": 9.5153198,
  "tags": {
    "addr:city": "Bodenwerder",
    "addr:country": "DE",
    "addr:housenumber": "59",
    "addr:postcode": "37619",
    "addr:street": "Große Straße",
    "amenity": "bank",
    "atm": "yes",
    "name": "Sparkasse",
    "operator": "Sparkasse Weserbergland",
    "phone": "05151-206-0",
    "wheelchair": "limited"
  }
},
{
  "type": "node",
  "id": 305063154,
  "lat": 51.9824613,
  "lon": 9.5038680,
  "tags": {
    "addr:city": "Bodenwerder",
    "addr:country": "DE",
    "addr:housenumber": "8",
    "addr:postcode": "37619",
    "addr:street": "Ernst-Reuter-Straße",
    "name": "REWE",
    "phone": "05533-3212 und 05533-4079689",
    "shop": "supermarket",
    "wheelchair": "limited"
  }
},
{
  "type": "node",
  "id": 305462532,
  "lat": 51.8792914,
  "lon": 9.6176379,
  "tags": {
    "addr:city": "Stadtoldendorf",
    "addr:housenumber": "7",
    "addr:postcode": "37627",
    "addr:street": "Warteweg",
    "amenity": "place_of_worship",
    "denomination": "pentecostal",
    "name": "Jesus Christus Gemeinde",
    "phone": "05532-4453",
    "religion": "christian",
    "wheelchair": "limited"
  }
},
{
  "type": "node",
  "id": 306593735,
  "lat": 52.4371013,
  "lon": 9.5918936,
  "tags": {
    "addr:housenumber": "22",
    "addr:postcode": "30827",
    "addr:street": "Erlenweg",
    "email": "info@hotel-cafe-galerie.de",
    "fax": "05131 / 443 227",
    "internet_access": "no",
    "name": "Hotel Café Galerie",
    "phone": "05131 / 499 - 00",
    "tourism": "hotel",
    "website": "http://www.hotel-cafe-galerie.de/"
  }
},
{
  "type": "node",
  "id": 307006708,
  "lat": 52.1610609,
  "lon": 10.5167886,
  "tags": {
    "addr:city": "Wolfenbüttel",
    "addr:country": "DE",
    "addr:housenumber": "29",
    "addr:postcode": "38304",
    "addr:street": "Adersheimer Straße",
    "addr:suburb": "Weiße Schanze",
    "name": "Löwenbäcker Schaper e.K.",
    "opening_hours": "Mo-Sa 06:00-18:00; Su 08:00-18:00",
    "operator": "Thomas Schaper",
    "phone": "053319056280",
    "shop": "bakery",
    "website": "http://loewenbaecker-schaper.de/standorte",
    "wheelchair": "yes"
  }
},
{
  "type": "node",
  "id": 307126399,
  "lat": 51.8910963,
  "lon": 10.1737196,
  "tags": {
    "amenity": "restaurant",
    "cuisine": "italian",
    "name": "Da Nico",
    "phone": "05381 2902",
    "wheelchair": "no"
  }
},
{
  "type": "node",
  "id": 307955145,
  "lat": 51.9283542,
  "lon": 9.6360583,
  "tags": {
    "addr:city": "Eschershausen",
    "addr:country": "DE",
    "addr:housenumber": "2",
    "addr:postcode": "37632",
    "addr:street": "Raabestraße",
    "amenity": "pharmacy",
    "dispensing": "yes",
    "name": "Raabe Apotheke",
    "phone": "05534-2310",
    "wheelchair": "yes"
  }
},
{
  "type": "node",
  "id": 308012344,
  "lat": 51.9281671,
  "lon": 9.6264384,
  "tags": {
    "addr:city": "Eschershausen",
    "addr:country": "DE",
    "addr:housenumber": "28",
    "addr:postcode": "37632",
    "addr:street": "Odfeldstraße",
    "amenity": "fuel",
    "fuel:diesel": "yes",
    "fuel:e10": "yes",
    "name": "Shell",
    "operator": "Vatterott",
    "phone": "01803-632499",
    "wheelchair": "limited"
  }
},
{
  "type": "node",
  "id": 308312668,
  "lat": 53.3680507,
  "lon": 7.2024007,
  "tags": {
    "addr:city": "Emden",
    "addr:country": "DE",
    "addr:housenumber": "1",
    "addr:postcode": "26721",
    "addr:street": "Boltentorstraße",
    "amenity": "pub",
    "name": "Bourbon",
    "phone": "04921918406",
    "wheelchair": "limited"
  }
},
{
  "type": "node",
  "id": 308788631,
  "lat": 52.3246176,
  "lon": 10.2338323,
  "tags": {
    "addr:city": "Peine",
    "addr:housenumber": "40",
    "addr:postcode": "31224",
    "addr:street": "Kantstraße",
    "amenity": "pharmacy",
    "dispensing": "yes",
    "name": "Arminius Apotheke",
    "opening_hours": "Mo,Tu,Th 08:00-18:30; We,Fr 08:00-18:00; Sa 09:00-12:00",
    "phone": "05171-15590",
    "website": "http://www.concept-apotheken.de/arminius-apotheke",
    "wheelchair": "yes"
  }
},
{
  "type": "node",
  "id": 308789575,
  "lat": 52.3214633,
  "lon": 10.2291549,
  "tags": {
    "addr:city": "Peine",
    "addr:housenumber": "2",
    "addr:postcode": "31224",
    "addr:street": "Querstraße",
    "amenity": "pharmacy",
    "dispensing": "yes",
    "name": "Glückauf Apotheke",
    "phone": "05171-6320",
    "website": "http://www.die-peiner-apotheken.de",
    "wheelchair": "yes"
  }
},
{
  "type": "node",
  "id": 309041477,
  "lat": 53.3680710,
  "lon": 7.2033624,
  "tags": {
    "addr:city": "Emden",
    "addr:country": "DE",
    "addr:housenumber": "20",
    "addr:postcode": "26721",
    "addr:street": "Neuer Markt",
    "amenity": "pub",
    "name": "Sams",
    "phone": "0492133353",
    "wheelchair": "no"
  }
},
{
  "type": "node",
  "id": 309041478,
  "lat": 53.3682240,
  "lon": 7.2035553,
  "tags": {
    "addr:city": "Emden",
    "addr:country": "DE",
    "addr:housenumber": "18",
    "addr:postcode": "26721",
    "addr:street": "Neuer Markt",
    "amenity": "restaurant",
    "name": "Zorbas",
    "phone": "0492133250",
    "wheelchair": "limited"
  }
},
{
  "type": "node",
  "id": 309718237,
  "lat": 52.3826844,
  "lon": 10.2619986,
  "tags": {
    "addr:city": "Edemissen",
    "addr:housenumber": "12",
    "addr:postcode": "31234",
    "addr:street": "Hermann-Löns-Straße",
    "name": "Andreas Altrock",
    "note": "Innere Medizin",
    "office": "physician",
    "phone": "05176-90364"
  }
},
{
  "type": "node",
  "id": 309718566,
  "lat": 52.3834376,
  "lon": 10.2668227,
  "tags": {
    "addr:city": "Edemissen",
    "addr:housenumber": "6",
    "addr:postcode": "31234",
    "addr:street": "Im Heestern",
    "amenity": "dentist",
    "name": "Oliver Vogel",
    "phone": "05176-525"
  }
},
{
  "type": "node",
  "id": 310149388,
  "lat": 51.7554018,
  "lon": 9.5216554,
  "tags": {
    "addr:city": "Holzminden",
    "addr:housenumber": "4",
    "addr:postcode": "37603",
    "addr:street": "Am Langenberg",
    "addr:suburb": "Neuhaus im Solling",
    "amenity": "place_of_worship",
    "denomination": "catholic",
    "name": "Sankt Benedikt",
    "phone": "05531-4069",
    "religion": "christian",
    "wheelchair": "limited"
  }
},
{
  "type": "node",
  "id": 310986530,
  "lat": 52.4201142,
  "lon": 10.7610369,
  "tags": {
    "addr:city": "Wolfsburg",
    "addr:country": "DE",
    "addr:housenumber": "5",
    "addr:postcode": "38440",
    "addr:street": "Brandenburger Platz",
    "amenity": "pharmacy",
    "name": "Wolf-Apotheke",
    "opening_hours": "Mo-Fr 08:00-12:30,14:30-18:00; Sa 08:00-12:30",
    "operator": "Magdalena Jander",
    "phone": "05361 32221",
    "website": "http://www.wolfapothekewolfsburg.de/",
    "wheelchair": "yes"
  }
},
{
  "type": "node",
  "id": 311057528,
  "lat": 53.2588462,
  "lon": 8.1156557,
  "tags": {
    "addr:city": "Wiefelstede",
    "addr:country": "DE",
    "addr:housenumber": "7",
    "addr:postcode": "26215",
    "addr:street": "Hauptstraße",
    "amenity": "fuel",
    "brand": "Esso",
    "fuel:diesel": "no",
    "fuel:lpg": "yes",
    "name": "Esso Station Bruns",
    "phone": "04402 96860"
  }
},
{
  "type": "node",
  "id": 311778180,
  "lat": 52.3731816,
  "lon": 9.7023067,
  "tags": {
    "addr:city": "Hannover",
    "addr:country": "DE",
    "addr:housenumber": "6",
    "addr:postcode": "30451",
    "addr:street": "Bethlehemplatz",
    "name": "Musikhaus Stampe & Schendzielorz",
    "opening_hours": "Mo-Fr 09:00-18:00, Sa 09:00-13:00",
    "phone": "0511-2107643",
    "shop": "musical_instrument",
    "website": "www.stampe-schendzielorz.de"
  }
},
{
  "type": "node",
  "id": 311825871,
  "lat": 53.3708574,
  "lon": 7.2187085,
  "tags": {
    "addr:city": "Emden",
    "addr:country": "DE",
    "addr:housenumber": "19",
    "addr:postcode": "26725",
    "addr:street": "Wolthuser Straße",
    "email": "info@hotel-prinzheinrich.de",
    "fax": "04921931818",
    "name": "Prinz Heinrich",
    "phone": "0492193180",
    "tourism": "hotel",
    "website": "http://www.hotel-prinzheinrich.de"
  }
},
{
  "type": "node",
  "id": 311861305,
  "lat": 52.1079586,
  "lon": 8.1008661,
  "tags": {
    "addr:city": "Bad Laer",
    "addr:housename": "Auf Blombergs Höhen",
    "addr:housenumber": "2",
    "addr:postcode": "49196",
    "addr:street": "Auf dem Blomberg",
    "amenity": "restaurant",
    "cuisine": "greek",
    "name": "Dionysopolis",
    "opening_hours": "Mo-Su 14:00-24:00",
    "phone": "05424 8899",
    "website": "http://www.restaurant-dionysopolis.de/"
  }
},
{
  "type": "node",
  "id": 313825976,
  "lat": 51.8206577,
  "lon": 9.4488762,
  "tags": {
    "addr:city": "Holzminden",
    "addr:housenumber": "42b",
    "addr:postcode": "37603",
    "addr:street": "Fürstenberger Straße",
    "name": "Zweiradcenter",
    "phone": "05531 / 4744",
    "shop": "bicycle",
    "wheelchair": "limited"
  }
},
{
  "type": "node",
  "id": 314139855,
  "lat": 53.2612557,
  "lon": 10.4138417,
  "tags": {
    "fax": "+49 4131 26345480",
    "name": "Hornbach",
    "note": "ehemals Max Bahr",
    "opening_hours": "Mo-Sa 07:00-20:00; PH off",
    "phone": "04131 263450",
    "shop": "doityourself",
    "website": "http://www.hornbach.de",
    "wheelchair": "yes"
  }
},
{
  "type": "node",
  "id": 315061526,
  "lat": 52.3407744,
  "lon": 10.2594605,
  "tags": {
    "addr:city": "Peine",
    "addr:housenumber": "20",
    "addr:postcode": "31228",
    "addr:street": "Heinrich-Hertz-Straße",
    "amenity": "fuel",
    "brand": "Esso",
    "fuel:HGV_diesel": "yes",
    "fuel:diesel": "yes",
    "fuel:e10": "yes",
    "fuel:lpg": "yes",
    "fuel:octane_91": "yes",
    "fuel:octane_95": "yes",
    "name": "Esso",
    "phone": "05171-76530",
    "website": "http://www.essofuelfinder.de",
    "wheelchair": "yes"
  }
},
{
  "type": "node",
  "id": 315098454,
  "lat": 51.9402609,
  "lon": 9.8023877,
  "tags": {
    "addr:city": "Delligsen",
    "addr:housenumber": "2",
    "addr:postcode": "31073",
    "addr:street": "Schulstraße",
    "amenity": "townhall",
    "name": "Flecken Delligsen",
    "phone": "05187-9415-0",
    "toilets:wheelchair": "no",
    "wheelchair": "limited"
  }
},
{
  "type": "node",
  "id": 315250145,
  "lat": 53.8897081,
  "lon": 8.6618774,
  "tags": {
    "addr:city": "Cuxhaven",
    "addr:housenumber": "35",
    "addr:postcode": "27476",
    "addr:street": "Steinmarner Trift",
    "amenity": "restaurant",
    "name": "Strandgaststätte Behrens",
    "phone": "04721 - 4 85 72",
    "toilets": "yes",
    "website": "http://www.strandgaststaette-behrens.de/",
    "wheelchair": "limited"
  }
},
{
  "type": "node",
  "id": 315506607,
  "lat": 52.1437915,
  "lon": 10.5480982,
  "tags": {
    "addr:city": "Wolfenbüttel",
    "addr:housenumber": "23",
    "addr:postcode": "38304",
    "addr:street": "Harzburger Straße",
    "amenity": "restaurant",
    "cuisine": "greek",
    "delivery": "no",
    "name": "Odysseus",
    "opening_hours": "Mo off; Tu-Th 17:00-24:00; Fr-Su,PH 11:30-14:00,17:00-24:00",
    "outdoor_seating": "yes",
    "phone": "0533169507",
    "reservation": "recommended",
    "smoking": "isolated",
    "takeaway": "yes",
    "website": "http://www.odysseus-restaurant.de",
    "wheelchair": "yes"
  }
},
{
  "type": "node",
  "id": 315809148,
  "lat": 51.6353947,
  "lon": 9.5605428,
  "tags": {
    "addr:city": "Bodenfelde",
    "addr:housename": "E Werner",
    "addr:housenumber": "9b",
    "addr:postcode": "37194",
    "addr:street": "Uslarer Straße",
    "name": "Edeka",
    "opening_hours": "Mo-Fr 08:00-20:00; Sa 08:00-18:00; PH off",
    "operator": "Don",
    "phone": "05572925090",
    "shop": "supermarket",
    "wheelchair": "yes"
  }
},
{
  "type": "node",
  "id": 316009530,
  "lat": 52.9216639,
  "lon": 9.2314366,
  "tags": {
    "addr:city": "Verden",
    "addr:country": "DE",
    "addr:housenumber": "7",
    "addr:postcode": "27283",
    "addr:street": "Ostertorstraße",
    "amenity": "restaurant",
    "cuisine": "mexican",
    "name": "Bodega Verden",
    "operator": "Bodega Verden GmbH & Co.KG",
    "phone": "04231 7789571",
    "toilets:wheelchair": "no",
    "website": "http://www.bodega-online.de",
    "wheelchair": "yes",
    "wheelchair:description": "Aufzug Rückseite am Biergarten.\nEigene Toiletten im Keller, Rollstuhltoilette Außen."
  }
},
{
  "type": "node",
  "id": 316812180,
  "lat": 52.1624713,
  "lon": 10.5399709,
  "tags": {
    "addr:city": "Wolfenbüttel",
    "addr:country": "DE",
    "addr:housenumber": "15",
    "addr:postcode": "38300",
    "addr:street": "Holzmarkt",
    "cafe": "yes",
    "name": "Richters Alstadt-Bäckerei - Café Schlüter",
    "opening_hours": "Mo-Fr 07:00-18:00; Sa-Su 07:00-17:00",
    "phone": "05331 - 8565981",
    "shop": "bakery",
    "website": "http://www.brotversteher.de",
    "wheelchair": "yes"
  }
},
{
  "type": "node",
  "id": 316812204,
  "lat": 52.1735571,
  "lon": 10.5530462,
  "tags": {
    "addr:city": "Wolfenbüttel",
    "addr:country": "DE",
    "addr:housenumber": "57",
    "addr:postcode": "38302",
    "addr:state": "Niedersachsen",
    "addr:street": "Kleine Breite",
    "name": "Richters Altstadt-Bäckerei",
    "opening_hours": "Mo-Fr 06:30-18:00; Sa 06:00-12:00; Su 08:00-11:00",
    "phone": "05331 - 932 598",
    "shop": "bakery",
    "website": "http://www.brotversteher.de",
    "wheelchair": "yes"
  }
},
{
  "type": "node",
  "id": 318921181,
  "lat": 51.9260754,
  "lon": 9.9010704,
  "tags": {
    "addr:city": "Freden (Leine)",
    "addr:housename": "Hotel Heipke",
    "addr:postcode": "31084",
    "addr:street": "Winzenburger Straße",
    "name": "Hotel Heipke",
    "operator": "Kurt Heipke",
    "phone": "05184-361",
    "tourism": "hotel",
    "website": "http://navigator.geolife.de/poi-900000131-8000.html",
    "wheelchair": "no"
  }
},
{
  "type": "node",
  "id": 319504422,
  "lat": 52.5185468,
  "lon": 8.1924905,
  "tags": {
    "addr:city": "Damme",
    "addr:housenumber": "26",
    "addr:postcode": "49401",
    "addr:street": "Lindenstraße",
    "amenity": "fuel",
    "brand": "Freie Tankstelle",
    "fuel:HGV_diesel": "yes",
    "fuel:diesel": "yes",
    "fuel:e10": "yes",
    "fuel:octane_95": "yes",
    "fuel:octane_98": "yes",
    "name": "Tankcenter Damme",
    "opening_hours": "00:00-24:00",
    "payment:coins": "yes",
    "payment:dkv": "yes",
    "payment:girocard": "yes",
    "payment:notes": "yes",
    "payment:uta": "yes",
    "payment:visa": "yes",
    "phone": "05491 - 9 99 45 44",
    "wheelchair": "limited"
  }
},
{
  "type": "node",
  "id": 320403344,
  "lat": 52.4462204,
  "lon": 10.0060872,
  "tags": {
    "addr:city": "Burgdorf",
    "addr:country": "DE",
    "addr:housenumber": "9",
    "addr:postcode": "31303",
    "addr:street": "Marktstraße",
    "amenity": "bank",
    "name": "Deutsche Bank",
    "opening_hours": "Mo,Tu,Th 09:00-13:00,14:00-18:00; We 09:00-13:00; Fr 09:00-14:00",
    "operator": "Deutsche Bank",
    "phone": "05136-80936",
    "wheelchair": "yes"
  }
},
{
  "type": "node",
  "id": 321555290,
  "lat": 52.3715724,
  "lon": 9.9153497,
  "tags": {
    "addr:city": "Lehrte",
    "addr:country": "DE",
    "addr:housenumber": "34",
    "addr:postcode": "31275",
    "addr:street": "Saturnring",
    "amenity": "kindergarten",
    "operator": "Stadt Lehrte",
    "phone": "05132 - 50 68 68",
    "toilets:wheelchair": "no",
    "wheelchair": "yes"
  }
},
{
  "type": "node",
  "id": 321722773,
  "lat": 52.3853000,
  "lon": 9.7248112,
  "tags": {
    "amenity": "fast_food",
    "cuisine": "asian",
    "fax": "++49 511 1698498",
    "name": "Mekong",
    "opening_hours": "Mo-Su 11:30-21:00",
    "phone": "++49 511 1698495;++49 511 1698497",
    "takeaway": "yes",
    "wheelchair": "limited"
  }
},
{
  "type": "node",
  "id": 322008272,
  "lat": 53.2039109,
  "lon": 7.8824006,
  "tags": {
    "addr:city": "Westerstede",
    "addr:country": "DE",
    "addr:housenumber": "15",
    "addr:postcode": "26655",
    "addr:street": "Westring",
    "addr:suburb": "Ocholt",
    "name": "Bäckerei Bremer",
    "phone": "04409 357",
    "shop": "bakery",
    "wheelchair": "limited"
  }
},
{
  "type": "node",
  "id": 322008286,
  "lat": 53.2014659,
  "lon": 7.8842179,
  "tags": {
    "addr:city": "Westerstede",
    "addr:country": "DE",
    "addr:housenumber": "5",
    "addr:postcode": "26655",
    "addr:street": "Godensholter Straße",
    "amenity": "pharmacy",
    "dispensing": "yes",
    "name": "Mühlen-Apotheke",
    "operator": "Anne Stryck",
    "phone": "04409 232",
    "wheelchair": "yes"
  }
},
{
  "type": "node",
  "id": 322031305,
  "lat": 52.3197147,
  "lon": 10.2302234,
  "tags": {
    "addr:city": "Peine",
    "addr:housenumber": "24",
    "addr:postcode": "31224",
    "addr:street": "Bahnhofstraße",
    "amenity": "pharmacy",
    "dispensing": "yes",
    "name": "Sonnen-Apotheke",
    "phone": "05171-6840",
    "website": "http://www.sonnenapotheke-peine.de",
    "wheelchair": "yes"
  }
},
{
  "type": "node",
  "id": 322031307,
  "lat": 52.3194770,
  "lon": 10.2306609,
  "tags": {
    "addr:city": "Peine",
    "addr:housenumber": "5",
    "addr:postcode": "31224",
    "addr:street": "Bahnhofstraße",
    "amenity": "pharmacy",
    "dispensing": "yes",
    "name": "Brücken-Apotheke",
    "phone": "05171-72929",
    "website": "http://www.brueckenapothekepeine.de",
    "wheelchair": "yes"
  }
},
{
  "type": "node",
  "id": 322598617,
  "lat": 52.3846452,
  "lon": 9.6635414,
  "tags": {
    "addr:city": "Hannover",
    "addr:country": "DE",
    "addr:housenumber": "52",
    "addr:postcode": "30453",
    "addr:street": "Wunstorfer Landstraße",
    "amenity": "restaurant",
    "cuisine": "yugoslavian",
    "name": "Plitvice Grill",
    "opening_hours": "Tu-Su 12:00-14:00; 18:00-00:00",
    "phone": "0511 409966",
    "toilets:wheelchair": "no",
    "wheelchair": "no"
  }
},
{
  "type": "node",
  "id": 323100916,
  "lat": 52.3737296,
  "lon": 9.7352773,
  "tags": {
    "addr:city": "Hannover",
    "addr:country": "DE",
    "addr:housenumber": "1",
    "addr:postcode": "30159",
    "addr:street": "Limburgstraße",
    "name": "fairKauf eG - Kaufhaus City",
    "opening_hours": "Mo-Sa 10:00-18:00",
    "operator": "fairKauf eG",
    "phone": "0511 / 3576590",
    "second_hand": "yes",
    "shop": "clothes",
    "website": "http://www.fairkauf-hannover.de",
    "wheelchair": "yes"
  }
},
{
  "type": "node",
  "id": 323829863,
  "lat": 53.5421323,
  "lon": 7.6918916,
  "tags": {
    "addr:city": "Wittmund",
    "addr:country": "DE",
    "addr:housenumber": "22",
    "addr:postcode": "26409",
    "addr:street": "Heglitzer Straße",
    "addr:suburb": "Ardorf",
    "amenity": "doctors",
    "description": "Facharzt für Innere Medizin Facharzt für Allgemeinmedizin",
    "name": "Ilija Barukcic",
    "opening_hours": "Mo,Th 09:00-12:00,16:30-19:00; Tu,We,Fr 09:00-12:00",
    "phone": "04466 333"
  }
},